{"type":"FeatureCollection","features":[{"type":"Feature","properties":{"Name":"Abraham Lincoln Birthplace National Historical Park","Park Code":"ABLI","Region":"SER","State":"KY","Park Website":"https://www.nps.gov/ABLI/index.htm","See Observations in iNaturalist":"http://www.inaturalist.org/observations?place_id=90763&subview=grid"},"geometry":{"type":"Point","coordinates":[-85.64442062,37.61197573]}},{"type":"Feature","properties":{"Name":"Acadia National Park","Park Code":"ACAD","Region":"NER","State":"ME","Park Website":"https://www.nps.gov/ACAD/index.htm","See Observations in iNaturalist":"http://www.inaturalist.org/observations?place_id=49610&subview=grid"},"geometry":{"type":"Point","coordinates":[-68.24410999,44.3507318]}},{"type":"Feature","properties":{"Name":"Adams National Historical Park","Park Code":"ADAM","Region":"NER","State":"MA","Park Website":"https://www.nps.gov/ADAM/index.htm","See Observations in iNaturalist":"http://www.inaturalist.org/observations?place_id=95081&subview=grid"},"geometry":{"type":"Point","coordinates":[-71.01254939,42.25659415]}},{"type":"Feature","properties":{"Name":"African Burial Ground National Monument","Park Code":"AFBG","Region":"NER","State":"NY","Park Website":"https://www.nps.gov/AFBG/index.htm","See Observations in iNaturalist":"http://www.inaturalist.org/observations?place_id=95082&subview=grid"},"geometry":{"type":"Point","coordinates":[-74.00432891,40.71454948]}},{"type":"Feature","properties":{"Name":"Agate Fossil Beds National Monument","Park Code":"AGFO","Region":"MWR","State":"NE","Park Website":"https://www.nps.gov/AGFO/index.htm","See Observations in iNaturalist":"http://www.inaturalist.org/observations?place_id=95089&subview=grid"},"geometry":{"type":"Point","coordinates":[-103.743999,42.42147185]}},{"type":"Feature","properties":{"Name":"Alagnak Wild River","Park Code":"ALAG","Region":"AKR","State":"AK","Park Website":"https://www.nps.gov/ALAG/index.htm","See Observations in iNaturalist":"http://www.inaturalist.org/observations?place_id=95091&subview=grid"},"geometry":{"type":"Point","coordinates":[-156.082237,59.00306616]}},{"type":"Feature","properties":{"Name":"Alibates Flint Quarries National Monument","Park Code":"ALFL","Region":"IMR","State":"TX","Park Website":"https://www.nps.gov/ALFL/index.htm","See Observations in iNaturalist":"http://www.inaturalist.org/observations?place_id=95084&subview=grid"},"geometry":{"type":"Point","coordinates":[-101.6717013,35.58196523]}},{"type":"Feature","properties":{"Name":"Ala Kahakai National Historic Trail","Park Code":"ALKA","Region":"PWR","State":"HI","Park Website":"https://www.nps.gov/ALKA/index.htm","See Observations in iNaturalist":"http://www.inaturalist.org/observations?place_id=97396&subview=grid"},"geometry":{"type":"Point","coordinates":[-155.5067587,19.13153705]}},{"type":"Feature","properties":{"Name":"Allegheny Portage Railroad National Historic Site","Park Code":"ALPO","Region":"NER","State":"PA","Park Website":"https://www.nps.gov/ALPO/index.htm","See Observations in iNaturalist":"http://www.inaturalist.org/observations?place_id=72632&subview=grid"},"geometry":{"type":"Point","coordinates":[-78.53186093,40.44677136]}},{"type":"Feature","properties":{"Name":"Amistad National Recreation Area","Park Code":"AMIS","Region":"IMR","State":"TX","Park Website":"https://www.nps.gov/AMIS/index.htm","See Observations in iNaturalist":"http://www.inaturalist.org/observations?place_id=95085&subview=grid"},"geometry":{"type":"Point","coordinates":[-101.2959346,29.57479057]}},{"type":"Feature","properties":{"Name":"American Memorial Park","Park Code":"AMME","Region":"PWR","State":"MP","Park Website":"https://www.nps.gov/AMME/index.htm","See Observations in iNaturalist":"http://www.inaturalist.org/observations?place_id=97397&subview=grid"},"geometry":{"type":"Point","coordinates":[145.7240013,15.21501517]}},{"type":"Feature","properties":{"Name":"Andersonville National Historic Site","Park Code":"ANDE","Region":"SER","State":"GA","Park Website":"https://www.nps.gov/ANDE/index.htm","See Observations in iNaturalist":"http://www.inaturalist.org/observations?place_id=95086&subview=grid"},"geometry":{"type":"Point","coordinates":[-84.12989005,32.19830322]}},{"type":"Feature","properties":{"Name":"Aniakchak National Monument","Park Code":"ANIA","Region":"AKR","State":"AK","Park Website":"https://www.nps.gov/ANIA/index.htm","See Observations in iNaturalist":"http://www.inaturalist.org/observations?place_id=95092&subview=grid"},"geometry":{"type":"Point","coordinates":[-158.1178088,56.89544341]}},{"type":"Feature","properties":{"Name":"Andrew Johnson National Historic Site","Park Code":"ANJO","Region":"SER","State":"TN","Park Website":"https://www.nps.gov/ANJO/index.htm","See Observations in iNaturalist":"http://www.inaturalist.org/observations?place_id=95093&subview=grid"},"geometry":{"type":"Point","coordinates":[-82.8381405,36.15536303]}},{"type":"Feature","properties":{"Name":"Antietam National Battlefield","Park Code":"ANTI","Region":"NCR","State":"MD","Park Website":"https://www.nps.gov/ANTI/index.htm","See Observations in iNaturalist":"http://www.inaturalist.org/observations?place_id=97399&subview=grid"},"geometry":{"type":"Point","coordinates":[-77.7380518,39.47010671]}},{"type":"Feature","properties":{"Name":"Appomattox Court House National Historical Park","Park Code":"APCO","Region":"NER","State":"VA","Park Website":"https://www.nps.gov/APCO/index.htm","See Observations in iNaturalist":"http://www.inaturalist.org/observations?place_id=95095&subview=grid"},"geometry":{"type":"Point","coordinates":[-78.80089447,37.38274761]}},{"type":"Feature","properties":{"Name":"Apostle Islands National Lakeshore","Park Code":"APIS","Region":"MWR","State":"WI","Park Website":"https://www.nps.gov/APIS/index.htm","See Observations in iNaturalist":"http://www.inaturalist.org/observations?place_id=95096&subview=grid"},"geometry":{"type":"Point","coordinates":[-90.57955662,46.93671618]}},{"type":"Feature","properties":{"Name":"Appalachian National Scenic Trail","Park Code":"APPA","Region":"NER","State":"ME","Park Website":"https://www.nps.gov/APPA/index.htm","See Observations in iNaturalist":"http://www.inaturalist.org/observations?place_id=95097&subview=grid"},"geometry":{"type":"Point","coordinates":[-80.38107677,37.35175454]}},{"type":"Feature","properties":{"Name":"Arches National Park","Park Code":"ARCH","Region":"IMR","State":"UT","Park Website":"https://www.nps.gov/ARCH/index.htm","See Observations in iNaturalist":"http://www.inaturalist.org/observations?place_id=53642&subview=grid"},"geometry":{"type":"Point","coordinates":[-109.5863498,38.72253865]}},{"type":"Feature","properties":{"Name":"Arlington House National Memorial","Park Code":"ARHO","Region":"NCR","State":"VA","Park Website":"https://www.nps.gov/ARHO/index.htm","See Observations in iNaturalist":"http://www.inaturalist.org/observations?place_id=95094&subview=grid"},"geometry":{"type":"Point","coordinates":[-77.07460869,38.88255199]}},{"type":"Feature","properties":{"Name":"Arkansas Post National Memorial","Park Code":"ARPO","Region":"MWR","State":"AR","Park Website":"https://www.nps.gov/ARPO/index.htm","See Observations in iNaturalist":"http://www.inaturalist.org/observations?place_id=95098&subview=grid"},"geometry":{"type":"Point","coordinates":[-91.3473276,34.02072546]}},{"type":"Feature","properties":{"Name":"Assateague Island National Seashore","Park Code":"ASIS","Region":"NER","State":"MD","Park Website":"https://www.nps.gov/ASIS/index.htm","See Observations in iNaturalist":"http://www.inaturalist.org/observations?place_id=62831&subview=grid"},"geometry":{"type":"Point","coordinates":[-75.24962442,38.03902729]}},{"type":"Feature","properties":{"Name":"Aztec Ruins National Monument","Park Code":"AZRU","Region":"IMR","State":"NM","Park Website":"https://www.nps.gov/AZRU/index.htm","See Observations in iNaturalist":"http://www.inaturalist.org/observations?place_id=95099&subview=grid"},"geometry":{"type":"Point","coordinates":[-107.9999245,36.83682198]}},{"type":"Feature","properties":{"Name":"Badlands National Park","Park Code":"BADL","Region":"MWR","State":"SD","Park Website":"https://www.nps.gov/BADL/index.htm","See Observations in iNaturalist":"http://www.inaturalist.org/observations?place_id=72792&subview=grid"},"geometry":{"type":"Point","coordinates":[-102.3939451,43.83400222]}},{"type":"Feature","properties":{"Name":"Bandelier National Monument","Park Code":"BAND","Region":"IMR","State":"NM","Park Website":"https://www.nps.gov/BAND/index.htm","See Observations in iNaturalist":"http://www.inaturalist.org/observations?place_id=63599&subview=grid"},"geometry":{"type":"Point","coordinates":[-106.3055099,35.75757661]}},{"type":"Feature","properties":{"Name":"Bering Land Bridge National Preserve","Park Code":"BELA","Region":"AKR","State":"AK","Park Website":"https://www.nps.gov/BELA/index.htm","See Observations in iNaturalist":"http://www.inaturalist.org/observations?place_id=95100&subview=grid"},"geometry":{"type":"Point","coordinates":[-163.9208061,65.75704848]}},{"type":"Feature","properties":{"Name":"Bent's Old Fort National Historic Site","Park Code":"BEOL","Region":"IMR","State":"CO","Park Website":"https://www.nps.gov/BEOL/index.htm","See Observations in iNaturalist":"http://www.inaturalist.org/observations?place_id=95101&subview=grid"},"geometry":{"type":"Point","coordinates":[-103.42665,38.03977483]}},{"type":"Feature","properties":{"Name":"Big Bend National Park","Park Code":"BIBE","Region":"IMR","State":"TX","Park Website":"https://www.nps.gov/BIBE/index.htm","See Observations in iNaturalist":"http://www.inaturalist.org/observations?place_id=55071&subview=grid"},"geometry":{"type":"Point","coordinates":[-103.2298542,29.29777692]}},{"type":"Feature","properties":{"Name":"Bighorn Canyon National Recreation Area","Park Code":"BICA","Region":"IMR","State":"WY","Park Website":"https://www.nps.gov/BICA/index.htm","See Observations in iNaturalist":"http://www.inaturalist.org/observations?place_id=95102&subview=grid"},"geometry":{"type":"Point","coordinates":[-108.0264036,45.28907419]}},{"type":"Feature","properties":{"Name":"Big Cypress National Preserve","Park Code":"BICY","Region":"SER","State":"FL","Park Website":"https://www.nps.gov/BICY/index.htm","See Observations in iNaturalist":"http://www.inaturalist.org/observations?place_id=95106&subview=grid"},"geometry":{"type":"Point","coordinates":[-81.08115282,25.97043292]}},{"type":"Feature","properties":{"Name":"Big Hole National Battlefield","Park Code":"BIHO","Region":"PWR","State":"MT","Park Website":"https://www.nps.gov/BIHO/index.htm","See Observations in iNaturalist":"http://www.inaturalist.org/observations?place_id=95107&subview=grid"},"geometry":{"type":"Point","coordinates":[-113.6501482,45.64691814]}},{"type":"Feature","properties":{"Name":"Biscayne National Park","Park Code":"BISC","Region":"SER","State":"FL","Park Website":"https://www.nps.gov/BISC/index.htm","See Observations in iNaturalist":"http://www.inaturalist.org/observations?place_id=95108&subview=grid"},"geometry":{"type":"Point","coordinates":[-80.210247,25.49049476]}},{"type":"Feature","properties":{"Name":"Big South Fork National River and Recreation Area","Park Code":"BISO","Region":"SER","State":"TN","Park Website":"https://www.nps.gov/BISO/index.htm","See Observations in iNaturalist":"http://www.inaturalist.org/observations?place_id=95109&subview=grid"},"geometry":{"type":"Point","coordinates":[-84.6651217,36.53466562]}},{"type":"Feature","properties":{"Name":"Big Thicket National Preserve","Park Code":"BITH","Region":"IMR","State":"TX","Park Website":"https://www.nps.gov/BITH/index.htm","See Observations in iNaturalist":"http://www.inaturalist.org/observations?place_id=95110&subview=grid"},"geometry":{"type":"Point","coordinates":[-94.11767341,30.20260051]}},{"type":"Feature","properties":{"Name":"Black Canyon of the Gunnison National Park","Park Code":"BLCA","Region":"IMR","State":"CO","Park Website":"https://www.nps.gov/BLCA/index.htm","See Observations in iNaturalist":"http://www.inaturalist.org/observations?place_id=72635&subview=grid"},"geometry":{"type":"Point","coordinates":[-107.7255568,38.57882425]}},{"type":"Feature","properties":{"Name":"Blue Ridge Parkway","Park Code":"BLRI","Region":"NT","State":"NC","Park Website":"https://www.nps.gov/BLRI/index.htm","See Observations in iNaturalist":"http://www.inaturalist.org/observations?place_id=95113&subview=grid"},"geometry":{"type":"Point","coordinates":[-81.07056466,36.43649863]}},{"type":"Feature","properties":{"Name":"Bluestone National Scenic River","Park Code":"BLUE","Region":"NER","State":"WV","Park Website":"https://www.nps.gov/BLUE/index.htm","See Observations in iNaturalist":"http://www.inaturalist.org/observations?place_id=95114&subview=grid"},"geometry":{"type":"Point","coordinates":[-80.96082027,37.58996388]}},{"type":"Feature","properties":{"Name":"Boston African American","Park Code":"BOAF","Region":"NER","State":"MA","Park Website":"https://www.nps.gov/BOAF/index.htm","See Observations in iNaturalist":"http://www.inaturalist.org/observations?place_id=95115&subview=grid"},"geometry":{"type":"Point","coordinates":[-71.07064043,42.35789563]}},{"type":"Feature","properties":{"Name":"Boston Harbor Islands National Recreation Area","Park Code":"BOHA","Region":"NER","State":"MA","Park Website":"https://www.nps.gov/BOHA/index.htm","See Observations in iNaturalist":"http://www.inaturalist.org/observations?place_id=95116&subview=grid"},"geometry":{"type":"Point","coordinates":[-70.8761789,42.26219884]}},{"type":"Feature","properties":{"Name":"Boston National Historical Park","Park Code":"BOST","Region":"NER","State":"MA","Park Website":"https://www.nps.gov/BOST/index.htm","See Observations in iNaturalist":"http://www.inaturalist.org/observations?place_id=95119&subview=grid"},"geometry":{"type":"Point","coordinates":[-71.0557492,42.37337754]}},{"type":"Feature","properties":{"Name":"Booker T. Washington National Monument","Park Code":"BOWA","Region":"NER","State":"VA","Park Website":"https://www.nps.gov/BOWA/index.htm","See Observations in iNaturalist":"http://www.inaturalist.org/observations?place_id=95120&subview=grid"},"geometry":{"type":"Point","coordinates":[-79.73187418,37.11481335]}},{"type":"Feature","properties":{"Name":"Bryce Canyon National Park","Park Code":"BRCA","Region":"IMR","State":"UT","Park Website":"https://www.nps.gov/BRCA/index.htm","See Observations in iNaturalist":"http://www.inaturalist.org/observations?place_id=69110&subview=grid"},"geometry":{"type":"Point","coordinates":[-112.1827111,37.5838981]}},{"type":"Feature","properties":{"Name":"Brices Cross Roads National Battlefield Site","Park Code":"BRCR","Region":"SER","State":"MS","Park Website":"https://www.nps.gov/BRCR/index.htm","See Observations in iNaturalist":"http://www.inaturalist.org/observations?place_id=95117&subview=grid"},"geometry":{"type":"Point","coordinates":[-88.72889343,34.50611958]}},{"type":"Feature","properties":{"Name":"Brown v. Board of Education National Historic Site","Park Code":"BRVB","Region":"MWR","State":"KS","Park Website":"https://www.nps.gov/BRVB/index.htm","See Observations in iNaturalist":"http://www.inaturalist.org/observations?place_id=95118&subview=grid"},"geometry":{"type":"Point","coordinates":[-95.67640762,39.03793261]}},{"type":"Feature","properties":{"Name":"Buffalo National River","Park Code":"BUFF","Region":"MWR","State":"AR","Park Website":"https://www.nps.gov/BUFF/index.htm","See Observations in iNaturalist":"http://www.inaturalist.org/observations?place_id=95122&subview=grid"},"geometry":{"type":"Point","coordinates":[-92.91810617,35.968644]}},{"type":"Feature","properties":{"Name":"Buck Island Reef National Monument","Park Code":"BUIS","Region":"SER","State":"VI","Park Website":"https://www.nps.gov/BUIS/index.htm","See Observations in iNaturalist":"http://www.inaturalist.org/observations?place_id=95123&subview=grid"},"geometry":{"type":"Point","coordinates":[-64.62221751,17.81026454]}},{"type":"Feature","properties":{"Name":"Cabrillo National Monument","Park Code":"CABR","Region":"PWR","State":"CA","Park Website":"https://www.nps.gov/CABR/index.htm","See Observations in iNaturalist":"http://www.inaturalist.org/observations?place_id=4715&subview=grid"},"geometry":{"type":"Point","coordinates":[-117.2415986,32.67225021]}},{"type":"Feature","properties":{"Name":"Canyon de Chelly National Monument","Park Code":"CACH","Region":"IMR","State":"AZ","Park Website":"https://www.nps.gov/CACH/index.htm","See Observations in iNaturalist":"http://www.inaturalist.org/observations?place_id=95126&subview=grid"},"geometry":{"type":"Point","coordinates":[-109.3403857,36.09426325]}},{"type":"Feature","properties":{"Name":"Castle Clinton National Monument","Park Code":"CACL","Region":"NER","State":"NY","Park Website":"https://www.nps.gov/CACL/index.htm","See Observations in iNaturalist":"http://www.inaturalist.org/observations?place_id=95127&subview=grid"},"geometry":{"type":"Point","coordinates":[-74.01680558,40.70347795]}},{"type":"Feature","properties":{"Name":"Cape Cod National Seashore","Park Code":"CACO","Region":"NER","State":"MA","Park Website":"https://www.nps.gov/CACO/index.htm","See Observations in iNaturalist":"http://www.inaturalist.org/observations?place_id=95121&subview=grid"},"geometry":{"type":"Point","coordinates":[-70.00526294,41.95905397]}},{"type":"Feature","properties":{"Name":"Casa Grande Ruins National Monument","Park Code":"CAGR","Region":"IMR","State":"AZ","Park Website":"https://www.nps.gov/CAGR/index.htm","See Observations in iNaturalist":"http://www.inaturalist.org/observations?place_id=95090&subview=grid"},"geometry":{"type":"Point","coordinates":[-111.5325383,32.99702566]}},{"type":"Feature","properties":{"Name":"Cape Hatteras National Seashore","Park Code":"CAHA","Region":"SER","State":"NC","Park Website":"https://www.nps.gov/CAHA/index.htm","See Observations in iNaturalist":"http://www.inaturalist.org/observations?place_id=95125&subview=grid"},"geometry":{"type":"Point","coordinates":[-75.53119353,35.24241198]}},{"type":"Feature","properties":{"Name":"Capitol Hill Parks","Park Code":"CAHE","Region":"NCR","State":"DC","Park Website":"https://www.nps.gov/CAHE/index.htm","See Observations in iNaturalist":"http://www.inaturalist.org/observations?place_id=97405&subview=grid"},"geometry":{"type":"Point","coordinates":[-76.99683566,38.88917488]}},{"type":"Feature","properties":{"Name":"Cape Krusenstern National Monument","Park Code":"CAKR","Region":"AKR","State":"AK","Park Website":"https://www.nps.gov/CAKR/index.htm","See Observations in iNaturalist":"http://www.inaturalist.org/observations?place_id=95083&subview=grid"},"geometry":{"type":"Point","coordinates":[-163.502572,67.41218477]}},{"type":"Feature","properties":{"Name":"Cape Lookout National Seashore","Park Code":"CALO","Region":"SER","State":"NC","Park Website":"https://www.nps.gov/CALO/index.htm","See Observations in iNaturalist":"http://www.inaturalist.org/observations?place_id=95087&subview=grid"},"geometry":{"type":"Point","coordinates":[-76.19003926,34.95824425]}},{"type":"Feature","properties":{"Name":"Canaveral National Seashore","Park Code":"CANA","Region":"SER","State":"FL","Park Website":"https://www.nps.gov/CANA/index.htm","See Observations in iNaturalist":"http://www.inaturalist.org/observations?place_id=95130&subview=grid"},"geometry":{"type":"Point","coordinates":[-80.75412332,28.78624732]}},{"type":"Feature","properties":{"Name":"Canyonlands National Park","Park Code":"CANY","Region":"IMR","State":"UT","Park Website":"https://www.nps.gov/CANY/index.htm","See Observations in iNaturalist":"http://www.inaturalist.org/observations?place_id=95131&subview=grid"},"geometry":{"type":"Point","coordinates":[-109.8769622,38.24314039]}},{"type":"Feature","properties":{"Name":"Capitol Reef National Park","Park Code":"CARE","Region":"IMR","State":"UT","Park Website":"https://www.nps.gov/CARE/index.htm","See Observations in iNaturalist":"http://www.inaturalist.org/observations?place_id=69282&subview=grid"},"geometry":{"type":"Point","coordinates":[-111.2830036,38.38355284]}},{"type":"Feature","properties":{"Name":"Cane River Creole National Historical Park","Park Code":"CARI","Region":"SER","State":"LA","Park Website":"https://www.nps.gov/CARI/index.htm","See Observations in iNaturalist":"http://www.inaturalist.org/observations?place_id=95105&subview=grid"},"geometry":{"type":"Point","coordinates":[-93.00729876,31.66444165]}},{"type":"Feature","properties":{"Name":"Carl Sandburg Home National Historic Site","Park Code":"CARL","Region":"SER","State":"NC","Park Website":"https://www.nps.gov/CARL/index.htm","See Observations in iNaturalist":"http://www.inaturalist.org/observations?place_id=95111&subview=grid"},"geometry":{"type":"Point","coordinates":[-82.45106268,35.26815486]}},{"type":"Feature","properties":{"Name":"Castillo de San Marcos National Monument","Park Code":"CASA","Region":"SER","State":"FL","Park Website":"https://www.nps.gov/CASA/index.htm","See Observations in iNaturalist":"http://www.inaturalist.org/observations?place_id=95135&subview=grid"},"geometry":{"type":"Point","coordinates":[-81.31217173,29.897857]}},{"type":"Feature","properties":{"Name":"Catoctin Mountain Park","Park Code":"CATO","Region":"NCR","State":"MD","Park Website":"https://www.nps.gov/CATO/index.htm","See Observations in iNaturalist":"http://www.inaturalist.org/observations?place_id=97409&subview=grid"},"geometry":{"type":"Point","coordinates":[-77.46122133,39.64821119]}},{"type":"Feature","properties":{"Name":"Carlsbad Caverns National Park","Park Code":"CAVE","Region":"IMR","State":"NM","Park Website":"https://www.nps.gov/CAVE/index.htm","See Observations in iNaturalist":"http://www.inaturalist.org/observations?place_id=69109&subview=grid"},"geometry":{"type":"Point","coordinates":[-104.5531363,32.14092525]}},{"type":"Feature","properties":{"Name":"Capulin Volcano National Monument","Park Code":"CAVO","Region":"IMR","State":"NM","Park Website":"https://www.nps.gov/CAVO/index.htm","See Observations in iNaturalist":"http://www.inaturalist.org/observations?place_id=90998&subview=grid"},"geometry":{"type":"Point","coordinates":[-103.9710428,36.78171068]}},{"type":"Feature","properties":{"Name":"Carter G. Woodson National Historic Site","Park Code":"CAWO","Region":"NCR","State":"MD","Park Website":"https://www.nps.gov/CAWO/index.htm","See Observations in iNaturalist":"http://www.inaturalist.org/observations?place_id=97410&subview=grid"},"geometry":{"type":"Point","coordinates":[-77.02430875,38.91088511]}},{"type":"Feature","properties":{"Name":"Cedar Creek & Belle Grove Historical Park","Park Code":"CEBE","Region":"NER","State":"VA","Park Website":"https://www.nps.gov/CEBE/index.htm","See Observations in iNaturalist":"http://www.inaturalist.org/observations?place_id=95133&subview=grid"},"geometry":{"type":"Point","coordinates":[-78.31608609,38.9923793]}},{"type":"Feature","properties":{"Name":"Cedar Breaks National Monument","Park Code":"CEBR","Region":"IMR","State":"UT","Park Website":"https://www.nps.gov/CEBR/index.htm","See Observations in iNaturalist":"http://www.inaturalist.org/observations?place_id=53640&subview=grid"},"geometry":{"type":"Point","coordinates":[-112.8452681,37.63545088]}},{"type":"Feature","properties":{"Name":"Cesar E. Chavez National Monument","Park Code":"CECH","Region":"PWR","State":"CA","Park Website":"https://www.nps.gov/CECH/index.htm","See Observations in iNaturalist":"http://www.inaturalist.org/observations?place_id=95129&subview=grid"},"geometry":{"type":"Point","coordinates":[-118.5615781,35.22729381]}},{"type":"Feature","properties":{"Name":"Chamizal National Memorial","Park Code":"CHAM","Region":"IMR","State":"TX","Park Website":"https://www.nps.gov/CHAM/index.htm","See Observations in iNaturalist":"http://www.inaturalist.org/observations?place_id=95136&subview=grid"},"geometry":{"type":"Point","coordinates":[-106.4544011,31.76729632]}},{"type":"Feature","properties":{"Name":"Chattahoochee River National Recreation Area","Park Code":"CHAT","Region":"SER","State":"GA","Park Website":"https://www.nps.gov/CHAT/index.htm","See Observations in iNaturalist":"http://www.inaturalist.org/observations?place_id=95137&subview=grid"},"geometry":{"type":"Point","coordinates":[-84.26676471,33.97241053]}},{"type":"Feature","properties":{"Name":"Chickamauga and Chattanooga National Military Park","Park Code":"CHCH","Region":"SER","State":"GA","Park Website":"https://www.nps.gov/CHCH/index.htm","See Observations in iNaturalist":"http://www.inaturalist.org/observations?place_id=95138&subview=grid"},"geometry":{"type":"Point","coordinates":[-85.25401191,34.91896903]}},{"type":"Feature","properties":{"Name":"Chaco Culture National Historical Park","Park Code":"CHCU","Region":"IMR","State":"NM","Park Website":"https://www.nps.gov/CHCU/index.htm","See Observations in iNaturalist":"http://www.inaturalist.org/observations?place_id=95139&subview=grid"},"geometry":{"type":"Point","coordinates":[-107.9481528,36.04492194]}},{"type":"Feature","properties":{"Name":"Chickasaw National Recreation Area","Park Code":"CHIC","Region":"IMR","State":"OK","Park Website":"https://www.nps.gov/CHIC/index.htm","See Observations in iNaturalist":"http://www.inaturalist.org/observations?place_id=95140&subview=grid"},"geometry":{"type":"Point","coordinates":[-97.00715806,34.46049374]}},{"type":"Feature","properties":{"Name":"Chiricahua National Monument","Park Code":"CHIR","Region":"IMR","State":"AZ","Park Website":"https://www.nps.gov/CHIR/index.htm","See Observations in iNaturalist":"http://www.inaturalist.org/observations?place_id=53613&subview=grid"},"geometry":{"type":"Point","coordinates":[-109.3416065,32.01214105]}},{"type":"Feature","properties":{"Name":"Channel Islands National Park","Park Code":"CHIS","Region":"PWR","State":"CA","Park Website":"https://www.nps.gov/CHIS/index.htm","See Observations in iNaturalist":"http://www.inaturalist.org/observations?place_id=3157&subview=grid"},"geometry":{"type":"Point","coordinates":[-119.7396508,34.01655127]}},{"type":"Feature","properties":{"Name":"Chesapeake and Ohio Canal National Historical Park","Park Code":"CHOH","Region":"NCR","State":"DC","Park Website":"https://www.nps.gov/CHOH/index.htm","See Observations in iNaturalist":"http://www.inaturalist.org/observations?place_id=97463&subview=grid"},"geometry":{"type":"Point","coordinates":[-77.94484191,39.5996516]}},{"type":"Feature","properties":{"Name":"Charles Pinckney National Historic Site","Park Code":"CHPI","Region":"SER","State":"SC","Park Website":"https://www.nps.gov/CHPI/index.htm","See Observations in iNaturalist":"http://www.inaturalist.org/observations?place_id=95144&subview=grid"},"geometry":{"type":"Point","coordinates":[-79.82487582,32.84577391]}},{"type":"Feature","properties":{"Name":"Christiansted National Historic Site","Park Code":"CHRI","Region":"SER","State":"VI","Park Website":"https://www.nps.gov/CHRI/index.htm","See Observations in iNaturalist":"http://www.inaturalist.org/observations?place_id=95145&subview=grid"},"geometry":{"type":"Point","coordinates":[-64.73996534,17.73405572]}},{"type":"Feature","properties":{"Name":"Little Rock Central High School National Historic Site","Park Code":"CHSC","Region":"MWR","State":"AR","Park Website":"https://www.nps.gov/CHSC/index.htm","See Observations in iNaturalist":"http://www.inaturalist.org/observations?place_id=95103&subview=grid"},"geometry":{"type":"Point","coordinates":[-92.29989913,34.73695924]}},{"type":"Feature","properties":{"Name":"Charles Young Buffalo Soldiers National Monument","Park Code":"CHYO","Region":"MWR","State":"OH","Park Website":"https://www.nps.gov/CHYO/index.htm","See Observations in iNaturalist":"http://www.inaturalist.org/observations?place_id=95124&subview=grid"},"geometry":{"type":"Point","coordinates":[-83.89223082,39.70744063]}},{"type":"Feature","properties":{"Name":"City of Rocks National Reserve","Park Code":"CIRO","Region":"PWR","State":"ID","Park Website":"https://www.nps.gov/CIRO/index.htm","See Observations in iNaturalist":"http://www.inaturalist.org/observations?place_id=95104&subview=grid"},"geometry":{"type":"Point","coordinates":[-113.7124104,42.06988424]}},{"type":"Feature","properties":{"Name":"Clara Barton National Historic Site","Park Code":"CLBA","Region":"NCR","State":"MD","Park Website":"https://www.nps.gov/CLBA/index.htm","See Observations in iNaturalist":"http://www.inaturalist.org/observations?place_id=95112&subview=grid"},"geometry":{"type":"Point","coordinates":[-77.14009689,38.96762881]}},{"type":"Feature","properties":{"Name":"Constitution Gardens","Park Code":"COGA","Region":"NCR","State":"DC","Park Website":"https://www.nps.gov/COGA/index.htm","See Observations in iNaturalist":"http://www.inaturalist.org/observations?place_id=97443&subview=grid"},"geometry":{"type":"Point","coordinates":[-77.04426658,38.89093673]}},{"type":"Feature","properties":{"Name":"Colorado National Monument","Park Code":"COLM","Region":"IMR","State":"CO","Park Website":"https://www.nps.gov/COLM/index.htm","See Observations in iNaturalist":"http://www.inaturalist.org/observations?place_id=95132&subview=grid"},"geometry":{"type":"Point","coordinates":[-108.6920609,39.05042535]}},{"type":"Feature","properties":{"Name":"Colonial National Historical Park","Park Code":"COLO","Region":"NER","State":"VA","Park Website":"https://www.nps.gov/COLO/index.htm","See Observations in iNaturalist":"http://www.inaturalist.org/observations?place_id=95134&subview=grid"},"geometry":{"type":"Point","coordinates":[-76.63422124,37.28808948]}},{"type":"Feature","properties":{"Name":"Congaree National Park","Park Code":"CONG","Region":"SER","State":"SC","Park Website":"https://www.nps.gov/CONG/index.htm","See Observations in iNaturalist":"http://www.inaturalist.org/observations?place_id=53620&subview=grid"},"geometry":{"type":"Point","coordinates":[-80.77279206,33.79684439]}},{"type":"Feature","properties":{"Name":"Coronado National Memorial","Park Code":"CORO","Region":"IMR","State":"AZ","Park Website":"https://www.nps.gov/CORO/index.htm","See Observations in iNaturalist":"http://www.inaturalist.org/observations?place_id=63840&subview=grid"},"geometry":{"type":"Point","coordinates":[-110.2561572,31.34900273]}},{"type":"Feature","properties":{"Name":"Cowpens National Battlefield","Park Code":"COWP","Region":"SER","State":"SC","Park Website":"https://www.nps.gov/COWP/index.htm","See Observations in iNaturalist":"http://www.inaturalist.org/observations?place_id=95148&subview=grid"},"geometry":{"type":"Point","coordinates":[-81.80935401,35.13160593]}},{"type":"Feature","properties":{"Name":"Crater Lake National Park","Park Code":"CRLA","Region":"PWR","State":"OR","Park Website":"https://www.nps.gov/CRLA/index.htm","See Observations in iNaturalist":"http://www.inaturalist.org/observations?place_id=52923&subview=grid"},"geometry":{"type":"Point","coordinates":[-122.1328164,42.9410862]}},{"type":"Feature","properties":{"Name":"Craters of the Moon National Monument","Park Code":"CRMO","Region":"PWR","State":"ID","Park Website":"https://www.nps.gov/CRMO/index.htm","See Observations in iNaturalist":"http://www.inaturalist.org/observations?place_id=56772&subview=grid"},"geometry":{"type":"Point","coordinates":[-113.4416201,43.28286894]}},{"type":"Feature","properties":{"Name":"Cumberland Gap National Historical Park","Park Code":"CUGA","Region":"SER","State":"KY","Park Website":"https://www.nps.gov/CUGA/index.htm","See Observations in iNaturalist":"http://www.inaturalist.org/observations?place_id=95149&subview=grid"},"geometry":{"type":"Point","coordinates":[-83.60635656,36.63126384]}},{"type":"Feature","properties":{"Name":"Cumberland Island National Seashore","Park Code":"CUIS","Region":"SER","State":"GA","Park Website":"https://www.nps.gov/CUIS/index.htm","See Observations in iNaturalist":"http://www.inaturalist.org/observations?place_id=95150&subview=grid"},"geometry":{"type":"Point","coordinates":[-81.45253385,30.85852664]}},{"type":"Feature","properties":{"Name":"Curecanti National Recreation Area","Park Code":"CURE","Region":"IMR","State":"CO","Park Website":"https://www.nps.gov/CURE/index.htm","See Observations in iNaturalist":"http://www.inaturalist.org/observations?place_id=95142&subview=grid"},"geometry":{"type":"Point","coordinates":[-107.1673374,38.46284966]}},{"type":"Feature","properties":{"Name":"Cuyahoga Valley National Park","Park Code":"CUVA","Region":"MWR","State":"OH","Park Website":"https://www.nps.gov/CUVA/index.htm","See Observations in iNaturalist":"http://www.inaturalist.org/observations?place_id=72639&subview=grid"},"geometry":{"type":"Point","coordinates":[-81.56904389,41.26123633]}},{"type":"Feature","properties":{"Name":"Dayton Aviation Heritage National Historical Park","Park Code":"DAAV","Region":"MWR","State":"OH","Park Website":"https://www.nps.gov/DAAV/index.htm","See Observations in iNaturalist":"http://www.inaturalist.org/observations?place_id=95151&subview=grid"},"geometry":{"type":"Point","coordinates":[-84.06442181,39.80396752]}},{"type":"Feature","properties":{"Name":"Denali National Park","Park Code":"DENA","Region":"AKR","State":"AK","Park Website":"https://www.nps.gov/DENA/index.htm","See Observations in iNaturalist":"http://www.inaturalist.org/observations?place_id=71077&subview=grid"},"geometry":{"type":"Point","coordinates":[-150.7341423,63.34110762]}},{"type":"Feature","properties":{"Name":"Devils Postpile National Monument","Park Code":"DEPO","Region":"PWR","State":"CA","Park Website":"https://www.nps.gov/DEPO/index.htm","See Observations in iNaturalist":"http://www.inaturalist.org/observations?place_id=5232&subview=grid"},"geometry":{"type":"Point","coordinates":[-119.0876861,37.61537361]}},{"type":"Feature","properties":{"Name":"De Soto National Memorial","Park Code":"DESO","Region":"SER","State":"FL","Park Website":"https://www.nps.gov/DESO/index.htm","See Observations in iNaturalist":"http://www.inaturalist.org/observations?place_id=95156&subview=grid"},"geometry":{"type":"Point","coordinates":[-82.64335416,27.52272611]}},{"type":"Feature","properties":{"Name":"Devils Tower National Monument","Park Code":"DETO","Region":"IMR","State":"WY","Park Website":"https://www.nps.gov/DETO/index.htm","See Observations in iNaturalist":"http://www.inaturalist.org/observations?place_id=95159&subview=grid"},"geometry":{"type":"Point","coordinates":[-104.7156342,44.59064562]}},{"type":"Feature","properties":{"Name":"Death Valley National Park","Park Code":"DEVA","Region":"PWR","State":"CA","Park Website":"https://www.nps.gov/DEVA/index.htm","See Observations in iNaturalist":"http://www.inaturalist.org/observations?place_id=4504&subview=grid"},"geometry":{"type":"Point","coordinates":[-117.1326278,36.48393063]}},{"type":"Feature","properties":{"Name":"Delaware Water Gap National Recreation Area","Park Code":"DEWA","Region":"NER","State":"PA","Park Website":"https://www.nps.gov/DEWA/index.htm","See Observations in iNaturalist":"http://www.inaturalist.org/observations?place_id=72641&subview=grid"},"geometry":{"type":"Point","coordinates":[-74.95693004,41.10031635]}},{"type":"Feature","properties":{"Name":"Dinosaur National Monument","Park Code":"DINO","Region":"IMR","State":"CO","Park Website":"https://www.nps.gov/DINO/index.htm","See Observations in iNaturalist":"http://www.inaturalist.org/observations?place_id=95164&subview=grid"},"geometry":{"type":"Point","coordinates":[-108.9377028,40.50596642]}},{"type":"Feature","properties":{"Name":"Dry Tortugas National Park","Park Code":"DRTO","Region":"SER","State":"FL","Park Website":"https://www.nps.gov/DRTO/index.htm","See Observations in iNaturalist":"http://www.inaturalist.org/observations?place_id=70571&subview=grid"},"geometry":{"type":"Point","coordinates":[-82.87179065,24.64883027]}},{"type":"Feature","properties":{"Name":"Ebey's Landing National Historical Reserve","Park Code":"EBLA","Region":"PWR","State":"WA","Park Website":"https://www.nps.gov/EBLA/index.htm","See Observations in iNaturalist":"http://www.inaturalist.org/observations?place_id=95166&subview=grid"},"geometry":{"type":"Point","coordinates":[-122.6877159,48.214014]}},{"type":"Feature","properties":{"Name":"Edgar Allan Poe National Historic Site","Park Code":"EDAL","Region":"NER","State":"PA","Park Website":"https://www.nps.gov/EDAL/index.htm","See Observations in iNaturalist":"http://www.inaturalist.org/observations?place_id=95167&subview=grid"},"geometry":{"type":"Point","coordinates":[-75.1500062,39.96195482]}},{"type":"Feature","properties":{"Name":"Edison National Historic Site","Park Code":"EDIS","Region":"NER","State":"NJ","Park Website":"https://www.nps.gov/EDIS/index.htm","See Observations in iNaturalist":"http://www.inaturalist.org/observations?place_id=95141&subview=grid"},"geometry":{"type":"Point","coordinates":[-74.23982097,40.78597075]}},{"type":"Feature","properties":{"Name":"Effigy Mounds National Monument","Park Code":"EFMO","Region":"MWR","State":"IA","Park Website":"https://www.nps.gov/EFMO/index.htm","See Observations in iNaturalist":"http://www.inaturalist.org/observations?place_id=95168&subview=grid"},"geometry":{"type":"Point","coordinates":[-91.20777104,43.09145766]}},{"type":"Feature","properties":{"Name":"Eisenhower National Historic Site","Park Code":"EISE","Region":"NER","State":"PA","Park Website":"https://www.nps.gov/EISE/index.htm","See Observations in iNaturalist":"http://www.inaturalist.org/observations?place_id=95169&subview=grid"},"geometry":{"type":"Point","coordinates":[-77.26508102,39.79577487]}},{"type":"Feature","properties":{"Name":"El Malpais National Monument","Park Code":"ELMA","Region":"IMR","State":"NM","Park Website":"https://www.nps.gov/ELMA/index.htm","See Observations in iNaturalist":"http://www.inaturalist.org/observations?place_id=95173&subview=grid"},"geometry":{"type":"Point","coordinates":[-107.977531,34.78484509]}},{"type":"Feature","properties":{"Name":"El Morro National Monument","Park Code":"ELMO","Region":"IMR","State":"NM","Park Website":"https://www.nps.gov/ELMO/index.htm","See Observations in iNaturalist":"http://www.inaturalist.org/observations?place_id=95174&subview=grid"},"geometry":{"type":"Point","coordinates":[-108.3463984,35.03895884]}},{"type":"Feature","properties":{"Name":"Eleanor Roosevelt National Historic Site","Park Code":"ELRO","Region":"NER","State":"NY","Park Website":"https://www.nps.gov/ELRO/index.htm","See Observations in iNaturalist":"http://www.inaturalist.org/observations?place_id=95175&subview=grid"},"geometry":{"type":"Point","coordinates":[-73.89687748,41.76086389]}},{"type":"Feature","properties":{"Name":"Eugene O'Neill National Historic Site","Park Code":"EUON","Region":"PWR","State":"CA","Park Website":"https://www.nps.gov/EUON/index.htm","See Observations in iNaturalist":"http://www.inaturalist.org/observations?place_id=95176&subview=grid"},"geometry":{"type":"Point","coordinates":[-122.0271566,37.82604456]}},{"type":"Feature","properties":{"Name":"Everglades National Park","Park Code":"EVER","Region":"SER","State":"FL","Park Website":"https://www.nps.gov/EVER/index.htm","See Observations in iNaturalist":"http://www.inaturalist.org/observations?place_id=53957&subview=grid"},"geometry":{"type":"Point","coordinates":[-80.88182401,25.37216762]}},{"type":"Feature","properties":{"Name":"Federal Hall National Memorial","Park Code":"FEHA","Region":"NER","State":"NY","Park Website":"https://www.nps.gov/FEHA/index.htm","See Observations in iNaturalist":"http://www.inaturalist.org/observations?place_id=95165&subview=grid"},"geometry":{"type":"Point","coordinates":[-74.01025636,40.70731192]}},{"type":"Feature","properties":{"Name":"Fire Island National Seashore","Park Code":"FIIS","Region":"NER","State":"NY","Park Website":"https://www.nps.gov/FIIS/index.htm","See Observations in iNaturalist":"http://www.inaturalist.org/observations?place_id=95160&subview=grid"},"geometry":{"type":"Point","coordinates":[-72.99435226,40.69182965]}},{"type":"Feature","properties":{"Name":"First Ladies National Historic Site","Park Code":"FILA","Region":"MWR","State":"OH","Park Website":"https://www.nps.gov/FILA/index.htm","See Observations in iNaturalist":"http://www.inaturalist.org/observations?place_id=95161&subview=grid"},"geometry":{"type":"Point","coordinates":[-81.37593264,40.79662217]}},{"type":"Feature","properties":{"Name":"Florissant Fossil Beds National Monument","Park Code":"FLFO","Region":"IMR","State":"CO","Park Website":"https://www.nps.gov/FLFO/index.htm","See Observations in iNaturalist":"http://www.inaturalist.org/observations?place_id=95152&subview=grid"},"geometry":{"type":"Point","coordinates":[-105.2803394,38.91260206]}},{"type":"Feature","properties":{"Name":"Flight 93 National Memorial","Park Code":"FLNI","Region":"NER","State":"PA","Park Website":"https://www.nps.gov/FLNI/index.htm","See Observations in iNaturalist":"http://www.inaturalist.org/observations?place_id=95177&subview=grid"},"geometry":{"type":"Point","coordinates":[-78.89457021,40.06061151]}},{"type":"Feature","properties":{"Name":"Fort Bowie National Historic Site","Park Code":"FOBO","Region":"IMR","State":"AZ","Park Website":"https://www.nps.gov/FOBO/index.htm","See Observations in iNaturalist":"http://www.inaturalist.org/observations?place_id=63837&subview=grid"},"geometry":{"type":"Point","coordinates":[-109.4511317,32.14925916]}},{"type":"Feature","properties":{"Name":"Fossil Butte National Monument","Park Code":"FOBU","Region":"IMR","State":"WY","Park Website":"https://www.nps.gov/FOBU/index.htm","See Observations in iNaturalist":"http://www.inaturalist.org/observations?place_id=95183&subview=grid"},"geometry":{"type":"Point","coordinates":[-110.7624714,41.85634277]}},{"type":"Feature","properties":{"Name":"Fort Caroline National Memorial","Park Code":"FOCA","Region":"SER","State":"FL","Park Website":"https://www.nps.gov/FOCA/index.htm","See Observations in iNaturalist":"http://www.inaturalist.org/observations?place_id=95163&subview=grid"},"geometry":{"type":"Point","coordinates":[-81.50029453,30.38452103]}},{"type":"Feature","properties":{"Name":"Fort Davis National Historic Site","Park Code":"FODA","Region":"IMR","State":"TX","Park Website":"https://www.nps.gov/FODA/index.htm","See Observations in iNaturalist":"http://www.inaturalist.org/observations?place_id=95178&subview=grid"},"geometry":{"type":"Point","coordinates":[-103.8961905,30.59930362]}},{"type":"Feature","properties":{"Name":"Fort Donelson National Battlefield","Park Code":"FODO","Region":"SER","State":"TN","Park Website":"https://www.nps.gov/FODO/index.htm","See Observations in iNaturalist":"http://www.inaturalist.org/observations?place_id=95182&subview=grid"},"geometry":{"type":"Point","coordinates":[-87.86088301,36.48728222]}},{"type":"Feature","properties":{"Name":"Fort Frederica National Monument","Park Code":"FOFR","Region":"SER","State":"GA","Park Website":"https://www.nps.gov/FOFR/index.htm","See Observations in iNaturalist":"http://www.inaturalist.org/observations?place_id=95184&subview=grid"},"geometry":{"type":"Point","coordinates":[-81.38984256,31.22355511]}},{"type":"Feature","properties":{"Name":"Fort Laramie National Historic Site","Park Code":"FOLA","Region":"IMR","State":"WY","Park Website":"https://www.nps.gov/FOLA/index.htm","See Observations in iNaturalist":"http://www.inaturalist.org/observations?place_id=95185&subview=grid"},"geometry":{"type":"Point","coordinates":[-104.5459193,42.20302502]}},{"type":"Feature","properties":{"Name":"Fort Larned National Historic Site","Park Code":"FOLS","Region":"MWR","State":"KS","Park Website":"https://www.nps.gov/FOLS/index.htm","See Observations in iNaturalist":"http://www.inaturalist.org/observations?place_id=95186&subview=grid"},"geometry":{"type":"Point","coordinates":[-99.21697509,38.18449077]}},{"type":"Feature","properties":{"Name":"Fort Matanzas National Monument","Park Code":"FOMA","Region":"SER","State":"FL","Park Website":"https://www.nps.gov/FOMA/index.htm","See Observations in iNaturalist":"http://www.inaturalist.org/observations?place_id=95187&subview=grid"},"geometry":{"type":"Point","coordinates":[-81.23866231,29.71140527]}},{"type":"Feature","properties":{"Name":"Fort McHenry National Monument and Historic Shrine","Park Code":"FOMC","Region":"NER","State":"MD","Park Website":"https://www.nps.gov/FOMC/index.htm","See Observations in iNaturalist":"http://www.inaturalist.org/observations?place_id=65738&subview=grid"},"geometry":{"type":"Point","coordinates":[-76.58044164,39.26395311]}},{"type":"Feature","properties":{"Name":"Fort Necessity National Battlefield","Park Code":"FONE","Region":"NER","State":"PA","Park Website":"https://www.nps.gov/FONE/index.htm","See Observations in iNaturalist":"http://www.inaturalist.org/observations?place_id=95189&subview=grid"},"geometry":{"type":"Point","coordinates":[-79.5886907,39.81003749]}},{"type":"Feature","properties":{"Name":"Fort Point National Historic Site","Park Code":"FOPO","Region":"PWR","State":"CA","Park Website":"https://www.nps.gov/FOPO/index.htm","See Observations in iNaturalist":"http://www.inaturalist.org/observations?place_id=95170&subview=grid"},"geometry":{"type":"Point","coordinates":[-122.4737172,37.80840018]}},{"type":"Feature","properties":{"Name":"Fort Pulaski National Monument","Park Code":"FOPU","Region":"SER","State":"GA","Park Website":"https://www.nps.gov/FOPU/index.htm","See Observations in iNaturalist":"http://www.inaturalist.org/observations?place_id=95171&subview=grid"},"geometry":{"type":"Point","coordinates":[-80.94362859,32.03477743]}},{"type":"Feature","properties":{"Name":"Fort Raleigh National Historic Site","Park Code":"FORA","Region":"SER","State":"NC","Park Website":"https://www.nps.gov/FORA/index.htm","See Observations in iNaturalist":"http://www.inaturalist.org/observations?place_id=95172&subview=grid"},"geometry":{"type":"Point","coordinates":[-75.70938761,35.93636827]}},{"type":"Feature","properties":{"Name":"Fort Scott National Historic Site","Park Code":"FOSC","Region":"MWR","State":"KS","Park Website":"https://www.nps.gov/FOSC/index.htm","See Observations in iNaturalist":"http://www.inaturalist.org/observations?place_id=95188&subview=grid"},"geometry":{"type":"Point","coordinates":[-94.70429174,37.84358848]}},{"type":"Feature","properties":{"Name":"Fort Smith National Historic Site","Park Code":"FOSM","Region":"MWR","State":"AR","Park Website":"https://www.nps.gov/FOSM/index.htm","See Observations in iNaturalist":"http://www.inaturalist.org/observations?place_id=95157&subview=grid"},"geometry":{"type":"Point","coordinates":[-94.43130219,35.38837825]}},{"type":"Feature","properties":{"Name":"Fort Stanwix National Monument","Park Code":"FOST","Region":"NER","State":"NY","Park Website":"https://www.nps.gov/FOST/index.htm","See Observations in iNaturalist":"http://www.inaturalist.org/observations?place_id=95190&subview=grid"},"geometry":{"type":"Point","coordinates":[-75.45557626,43.2105344]}},{"type":"Feature","properties":{"Name":"Fort Sumter National Monument","Park Code":"FOSU","Region":"SER","State":"SC","Park Website":"https://www.nps.gov/FOSU/index.htm","See Observations in iNaturalist":"http://www.inaturalist.org/observations?place_id=95191&subview=grid"},"geometry":{"type":"Point","coordinates":[-79.87933364,32.75359427]}},{"type":"Feature","properties":{"Name":"Ford's Theatre National Historic Site","Park Code":"FOTH","Region":"NCR","State":"DC","Park Website":"https://www.nps.gov/FOTH/index.htm","See Observations in iNaturalist":"http://www.inaturalist.org/observations?place_id=97417&subview=grid"},"geometry":{"type":"Point","coordinates":[-77.02565974,38.89666226]}},{"type":"Feature","properties":{"Name":"Fort Union National Monument","Park Code":"FOUN","Region":"IMR","State":"NM","Park Website":"https://www.nps.gov/FOUN/index.htm","See Observations in iNaturalist":"http://www.inaturalist.org/observations?place_id=95192&subview=grid"},"geometry":{"type":"Point","coordinates":[-105.0120174,35.90737075]}},{"type":"Feature","properties":{"Name":"Fort Union Trading Post National Historic Site","Park Code":"FOUS","Region":"MWR","State":"ND","Park Website":"https://www.nps.gov/FOUS/index.htm","See Observations in iNaturalist":"http://www.inaturalist.org/observations?place_id=95195&subview=grid"},"geometry":{"type":"Point","coordinates":[-104.0380786,47.99898646]}},{"type":"Feature","properties":{"Name":"Fort Vancouver National Historic Site","Park Code":"FOVA","Region":"PWR","State":"WA","Park Website":"https://www.nps.gov/FOVA/index.htm","See Observations in iNaturalist":"http://www.inaturalist.org/observations?place_id=95193&subview=grid"},"geometry":{"type":"Point","coordinates":[-122.6616376,45.62356027]}},{"type":"Feature","properties":{"Name":"Fort Washington Park","Park Code":"FOWA","Region":"NCR","State":"MD","Park Website":"https://www.nps.gov/FOWA/index.htm","See Observations in iNaturalist":"http://www.inaturalist.org/observations?place_id=97420&subview=grid"},"geometry":{"type":"Point","coordinates":[-77.02875093,38.71217666]}},{"type":"Feature","properties":{"Name":"Franklin Delano Roosevelt Memorial","Park Code":"FRDE","Region":"NCR","State":"DC","Park Website":"https://www.nps.gov/FRDE/index.htm","See Observations in iNaturalist":"http://www.inaturalist.org/observations?place_id=97421&subview=grid"},"geometry":{"type":"Point","coordinates":[-77.04311542,38.88341273]}},{"type":"Feature","properties":{"Name":"Frederick Douglass National Historic Site","Park Code":"FRDO","Region":"NCR","State":"DC","Park Website":"https://www.nps.gov/FRDO/index.htm","See Observations in iNaturalist":"http://www.inaturalist.org/observations?place_id=97415&subview=grid"},"geometry":{"type":"Point","coordinates":[-76.98507919,38.86297683]}},{"type":"Feature","properties":{"Name":"Fredericksburg","Park Code":"FRED","Region":"NER","State":"VA","Park Website":"https://www.nps.gov/FRED/index.htm","See Observations in iNaturalist":"http://www.inaturalist.org/observations?place_id=95180&subview=grid"},"geometry":{"type":"Point","coordinates":[-77.46918659,38.292854]}},{"type":"Feature","properties":{"Name":"Friendship Hill National Historic Site","Park Code":"FRHI","Region":"NER","State":"PA","Park Website":"https://www.nps.gov/FRHI/index.htm","See Observations in iNaturalist":"http://www.inaturalist.org/observations?place_id=95194&subview=grid"},"geometry":{"type":"Point","coordinates":[-79.92528004,39.77545488]}},{"type":"Feature","properties":{"Name":"Frederick Law Olmsted National Historic Site","Park Code":"FRLA","Region":"NER","State":"MA","Park Website":"https://www.nps.gov/FRLA/index.htm","See Observations in iNaturalist":"http://www.inaturalist.org/observations?place_id=95179&subview=grid"},"geometry":{"type":"Point","coordinates":[-71.13112957,42.32550867]}},{"type":"Feature","properties":{"Name":"First State National Historical Park","Park Code":"FRST","Region":"NER","State":"DE","Park Website":"https://www.nps.gov/FRST/index.htm","See Observations in iNaturalist":"http://www.inaturalist.org/observations?place_id=95201&subview=grid"},"geometry":{"type":"Point","coordinates":[-75.56362482,39.83184434]}},{"type":"Feature","properties":{"Name":"Gates of the Arctic National Park and Preserve","Park Code":"GAAR","Region":"AKR","State":"AK","Park Website":"https://www.nps.gov/GAAR/index.htm","See Observations in iNaturalist":"http://www.inaturalist.org/observations?place_id=69111&subview=grid"},"geometry":{"type":"Point","coordinates":[-153.3869032,67.86900574]}},{"type":"Feature","properties":{"Name":"Gauley River National Recreation Area","Park Code":"GARI","Region":"NER","State":"WV","Park Website":"https://www.nps.gov/GARI/index.htm","See Observations in iNaturalist":"http://www.inaturalist.org/observations?place_id=95202&subview=grid"},"geometry":{"type":"Point","coordinates":[-81.004202,38.206142]}},{"type":"Feature","properties":{"Name":"Gateway National Recreation Area","Park Code":"GATE","Region":"NER","State":"NY","Park Website":"https://www.nps.gov/GATE/index.htm","See Observations in iNaturalist":"http://www.inaturalist.org/observations?place_id=69314&subview=grid"},"geometry":{"type":"Point","coordinates":[-73.86104474,40.6185497]}},{"type":"Feature","properties":{"Name":"General Grant National Memorial","Park Code":"GEGR","Region":"NER","State":"NY","Park Website":"https://www.nps.gov/GEGR/index.htm","See Observations in iNaturalist":"http://www.inaturalist.org/observations?place_id=95203&subview=grid"},"geometry":{"type":"Point","coordinates":[-73.96307567,40.81343436]}},{"type":"Feature","properties":{"Name":"George Rogers Clark National Historical Park","Park Code":"GERO","Region":"MWR","State":"IN","Park Website":"https://www.nps.gov/GERO/index.htm","See Observations in iNaturalist":"http://www.inaturalist.org/observations?place_id=95204&subview=grid"},"geometry":{"type":"Point","coordinates":[-87.53700769,38.67840212]}},{"type":"Feature","properties":{"Name":"Gettysburg National Military Park","Park Code":"GETT","Region":"NER","State":"PA","Park Website":"https://www.nps.gov/GETT/index.htm","See Observations in iNaturalist":"http://www.inaturalist.org/observations?place_id=95208&subview=grid"},"geometry":{"type":"Point","coordinates":[-77.23846983,39.80428488]}},{"type":"Feature","properties":{"Name":"George Washington Birthplace National Monument","Park Code":"GEWA","Region":"NER","State":"VA","Park Website":"https://www.nps.gov/GEWA/index.htm","See Observations in iNaturalist":"http://www.inaturalist.org/observations?place_id=72881&subview=grid"},"geometry":{"type":"Point","coordinates":[-76.92331568,38.19300471]}},{"type":"Feature","properties":{"Name":"Gila Cliff Dwellings National Monument","Park Code":"GICL","Region":"IMR","State":"NM","Park Website":"https://www.nps.gov/GICL/index.htm","See Observations in iNaturalist":"http://www.inaturalist.org/observations?place_id=95198&subview=grid"},"geometry":{"type":"Point","coordinates":[-108.2732958,33.22760971]}},{"type":"Feature","properties":{"Name":"Glacier National Park","Park Code":"GLAC","Region":"IMR","State":"MT","Park Website":"https://www.nps.gov/GLAC/index.htm","See Observations in iNaturalist":"http://www.inaturalist.org/observations?place_id=72841&subview=grid"},"geometry":{"type":"Point","coordinates":[-113.8587463,48.74679601]}},{"type":"Feature","properties":{"Name":"Glacier Bay National Park","Park Code":"GLBA","Region":"AKR","State":"AK","Park Website":"https://www.nps.gov/GLBA/index.htm","See Observations in iNaturalist":"http://www.inaturalist.org/observations?place_id=69113&subview=grid"},"geometry":{"type":"Point","coordinates":[-136.8109294,58.79143942]}},{"type":"Feature","properties":{"Name":"Glen Canyon National Recreation Area","Park Code":"GLCA","Region":"IMR","State":"UT","Park Website":"https://www.nps.gov/GLCA/index.htm","See Observations in iNaturalist":"http://www.inaturalist.org/observations?place_id=95199&subview=grid"},"geometry":{"type":"Point","coordinates":[-110.8021276,37.39766815]}},{"type":"Feature","properties":{"Name":"Golden Gate National Recreation Area","Park Code":"GOGA","Region":"PWR","State":"CA","Park Website":"https://www.nps.gov/GOGA/index.htm","See Observations in iNaturalist":"http://www.inaturalist.org/observations?place_id=9912&subview=grid"},"geometry":{"type":"Point","coordinates":[-122.551128,37.85887677]}},{"type":"Feature","properties":{"Name":"Governors Island National Monument","Park Code":"GOIS","Region":"NER","State":"NY","Park Website":"https://www.nps.gov/GOIS/index.htm","See Observations in iNaturalist":"http://www.inaturalist.org/observations?place_id=95200&subview=grid"},"geometry":{"type":"Point","coordinates":[-74.01682767,40.69161563]}},{"type":"Feature","properties":{"Name":"Golden Spike National Historic Site","Park Code":"GOSP","Region":"IMR","State":"UT","Park Website":"https://www.nps.gov/GOSP/index.htm","See Observations in iNaturalist":"http://www.inaturalist.org/observations?place_id=95212&subview=grid"},"geometry":{"type":"Point","coordinates":[-112.4939862,41.63099575]}},{"type":"Feature","properties":{"Name":"Great Basin National Park","Park Code":"GRBA","Region":"PWR","State":"NV","Park Website":"https://www.nps.gov/GRBA/index.htm","See Observations in iNaturalist":"http://www.inaturalist.org/observations?place_id=69699&subview=grid"},"geometry":{"type":"Point","coordinates":[-114.2579658,38.9460953]}},{"type":"Feature","properties":{"Name":"Grand Canyon National Park","Park Code":"GRCA","Region":"IMR","State":"AZ","Park Website":"https://www.nps.gov/GRCA/index.htm","See Observations in iNaturalist":"http://www.inaturalist.org/observations?place_id=69216&subview=grid"},"geometry":{"type":"Point","coordinates":[-112.185254,36.18654515]}},{"type":"Feature","properties":{"Name":"Greenbelt Park","Park Code":"GREE","Region":"NCR","State":"MD","Park Website":"https://www.nps.gov/GREE/index.htm","See Observations in iNaturalist":"http://www.inaturalist.org/observations?place_id=97423&subview=grid"},"geometry":{"type":"Point","coordinates":[-76.90069152,38.98403277]}},{"type":"Feature","properties":{"Name":"Grant-Kohrs Ranch National Historic Site","Park Code":"GRKO","Region":"IMR","State":"MT","Park Website":"https://www.nps.gov/GRKO/index.htm","See Observations in iNaturalist":"http://www.inaturalist.org/observations?place_id=95213&subview=grid"},"geometry":{"type":"Point","coordinates":[-112.7467034,46.41358655]}},{"type":"Feature","properties":{"Name":"Grand Portage National Monument","Park Code":"GRPO","Region":"MWR","State":"MI","Park Website":"https://www.nps.gov/GRPO/index.htm","See Observations in iNaturalist":"http://www.inaturalist.org/observations?place_id=95216&subview=grid"},"geometry":{"type":"Point","coordinates":[-89.7606885,47.999682]}},{"type":"Feature","properties":{"Name":"Great Sand Dunes National Park","Park Code":"GRSA","Region":"IMR","State":"CO","Park Website":"https://www.nps.gov/GRSA/index.htm","See Observations in iNaturalist":"http://www.inaturalist.org/observations?place_id=53632&subview=grid"},"geometry":{"type":"Point","coordinates":[-105.6288604,37.77654364]}},{"type":"Feature","properties":{"Name":"Great Smoky Mountains National Park","Park Code":"GRSM","Region":"SER","State":"NC","Park Website":"https://www.nps.gov/GRSM/index.htm","See Observations in iNaturalist":"http://www.inaturalist.org/observations?place_id=72645&subview=grid"},"geometry":{"type":"Point","coordinates":[-83.52627532,35.60927471]}},{"type":"Feature","properties":{"Name":"Grand Teton National Park","Park Code":"GRTE","Region":"IMR","State":"WY","Park Website":"https://www.nps.gov/GRTE/index.htm","See Observations in iNaturalist":"http://www.inaturalist.org/observations?place_id=69099&subview=grid"},"geometry":{"type":"Point","coordinates":[-110.7054877,43.81816011]}},{"type":"Feature","properties":{"Name":"Guilford Courthouse National Military Park","Park Code":"GUCO","Region":"SER","State":"NC","Park Website":"https://www.nps.gov/GUCO/index.htm","See Observations in iNaturalist":"http://www.inaturalist.org/observations?place_id=95214&subview=grid"},"geometry":{"type":"Point","coordinates":[-79.84186813,36.1330178]}},{"type":"Feature","properties":{"Name":"Gulf Islands National Seashore","Park Code":"GUIS","Region":"SER","State":"FL","Park Website":"https://www.nps.gov/GUIS/index.htm","See Observations in iNaturalist":"http://www.inaturalist.org/observations?place_id=95223&subview=grid"},"geometry":{"type":"Point","coordinates":[-86.90996505,30.37306335]}},{"type":"Feature","properties":{"Name":"Guadalupe Mountains National Park","Park Code":"GUMO","Region":"IMR","State":"TX","Park Website":"https://www.nps.gov/GUMO/index.htm","See Observations in iNaturalist":"http://www.inaturalist.org/observations?place_id=69313&subview=grid"},"geometry":{"type":"Point","coordinates":[-104.8843561,31.92334952]}},{"type":"Feature","properties":{"Name":"George Washington Carver National Monument","Park Code":"GWCA","Region":"MWR","State":"MO","Park Website":"https://www.nps.gov/GWCA/index.htm","See Observations in iNaturalist":"http://www.inaturalist.org/observations?place_id=95224&subview=grid"},"geometry":{"type":"Point","coordinates":[-94.35522735,36.98713203]}},{"type":"Feature","properties":{"Name":"George Washington Memorial Parkway","Park Code":"GWMP","Region":"NCR","State":"VA","Park Website":"https://www.nps.gov/GWMP/index.htm","See Observations in iNaturalist":"http://www.inaturalist.org/observations?place_id=97425&subview=grid"},"geometry":{"type":"Point","coordinates":[-77.04954861,38.71498629]}},{"type":"Feature","properties":{"Name":"Harpers Ferry National Historical Park","Park Code":"HAFE","Region":"NCR","State":"WV","Park Website":"https://www.nps.gov/HAFE/index.htm","See Observations in iNaturalist":"http://www.inaturalist.org/observations?place_id=97426&subview=grid"},"geometry":{"type":"Point","coordinates":[-77.74195536,39.31286155]}},{"type":"Feature","properties":{"Name":"Hagerman Fossil Beds National Monument","Park Code":"HAFO","Region":"PWR","State":"ID","Park Website":"https://www.nps.gov/HAFO/index.htm","See Observations in iNaturalist":"http://www.inaturalist.org/observations?place_id=95219&subview=grid"},"geometry":{"type":"Point","coordinates":[-114.9539989,42.77557327]}},{"type":"Feature","properties":{"Name":"Hamilton Grange National Memorial","Park Code":"HAGR","Region":"NER","State":"NY","Park Website":"https://www.nps.gov/HAGR/index.htm","See Observations in iNaturalist":"http://www.inaturalist.org/observations?place_id=95220&subview=grid"},"geometry":{"type":"Point","coordinates":[-73.94727123,40.82128019]}},{"type":"Feature","properties":{"Name":"Haleakala National Park","Park Code":"HALE","Region":"PWR","State":"HI","Park Website":"https://www.nps.gov/HALE/index.htm","See Observations in iNaturalist":"http://www.inaturalist.org/observations?place_id=56788&subview=grid"},"geometry":{"type":"Point","coordinates":[-156.1485713,20.70728294]}},{"type":"Feature","properties":{"Name":"Hampton National Historic Site","Park Code":"HAMP","Region":"NER","State":"MD","Park Website":"https://www.nps.gov/HAMP/index.htm","See Observations in iNaturalist":"http://www.inaturalist.org/observations?place_id=95225&subview=grid"},"geometry":{"type":"Point","coordinates":[-76.58821007,39.41660872]}},{"type":"Feature","properties":{"Name":"Hawai'i Volcanoes National Park","Park Code":"HAVO","Region":"PWR","State":"HI","Park Website":"https://www.nps.gov/HAVO/index.htm","See Observations in iNaturalist":"http://www.inaturalist.org/observations?place_id=7222&subview=grid"},"geometry":{"type":"Point","coordinates":[-155.6028551,19.37757748]}},{"type":"Feature","properties":{"Name":"Herbert Hoover National Historic Site","Park Code":"HEHO","Region":"MWR","State":"IA","Park Website":"https://www.nps.gov/HEHO/index.htm","See Observations in iNaturalist":"http://www.inaturalist.org/observations?place_id=95226&subview=grid"},"geometry":{"type":"Point","coordinates":[-91.35149954,41.66729293]}},{"type":"Feature","properties":{"Name":"Horseshoe Bend National Military Park","Park Code":"HOBE","Region":"SER","State":"AL","Park Website":"https://www.nps.gov/HOBE/index.htm","See Observations in iNaturalist":"http://www.inaturalist.org/observations?place_id=95227&subview=grid"},"geometry":{"type":"Point","coordinates":[-85.73413618,32.97668769]}},{"type":"Feature","properties":{"Name":"Hopewell Culture National Historical Park","Park Code":"HOCU","Region":"MWR","State":"OH","Park Website":"https://www.nps.gov/HOCU/index.htm","See Observations in iNaturalist":"http://www.inaturalist.org/observations?place_id=95221&subview=grid"},"geometry":{"type":"Point","coordinates":[-83.13519508,39.2793938]}},{"type":"Feature","properties":{"Name":"Home of Franklin D Roosevelt National Historic Site","Park Code":"HOFR","Region":"NER","State":"NY","Park Website":"https://www.nps.gov/HOFR/index.htm","See Observations in iNaturalist":"http://www.inaturalist.org/observations?place_id=95230&subview=grid"},"geometry":{"type":"Point","coordinates":[-73.92671769,41.76804119]}},{"type":"Feature","properties":{"Name":"Hopewell Furnace National Historic Site","Park Code":"HOFU","Region":"NER","State":"PA","Park Website":"https://www.nps.gov/HOFU/index.htm","See Observations in iNaturalist":"http://www.inaturalist.org/observations?place_id=95231&subview=grid"},"geometry":{"type":"Point","coordinates":[-75.76811627,40.2060723]}},{"type":"Feature","properties":{"Name":"Homestead National Monument","Park Code":"HOME","Region":"MWR","State":"NE","Park Website":"https://www.nps.gov/HOME/index.htm","See Observations in iNaturalist":"http://www.inaturalist.org/observations?place_id=95205&subview=grid"},"geometry":{"type":"Point","coordinates":[-96.83392498,40.28799999]}},{"type":"Feature","properties":{"Name":"Honouliuli National Monument","Park Code":"HONO","Region":"PWR","State":"HI","Park Website":"https://www.nps.gov/HONO/index.htm","See Observations in iNaturalist":"http://www.inaturalist.org/observations?place_id=95233&subview=grid"},"geometry":{"type":"Point","coordinates":[-158.057499,21.3881751]}},{"type":"Feature","properties":{"Name":"Hot Springs National Park","Park Code":"HOSP","Region":"MWR","State":"AR","Park Website":"https://www.nps.gov/HOSP/index.htm","See Observations in iNaturalist":"http://www.inaturalist.org/observations?place_id=56706&subview=grid"},"geometry":{"type":"Point","coordinates":[-93.08972185,34.51113731]}},{"type":"Feature","properties":{"Name":"Hovenweep National Monument","Park Code":"HOVE","Region":"IMR","State":"UT","Park Website":"https://www.nps.gov/HOVE/index.htm","See Observations in iNaturalist":"http://www.inaturalist.org/observations?place_id=95235&subview=grid"},"geometry":{"type":"Point","coordinates":[-109.0684513,37.383539]}},{"type":"Feature","properties":{"Name":"Harry S Truman National Historic Site","Park Code":"HSTR","Region":"MWR","State":"MO","Park Website":"https://www.nps.gov/HSTR/index.htm","See Observations in iNaturalist":"http://www.inaturalist.org/observations?place_id=95236&subview=grid"},"geometry":{"type":"Point","coordinates":[-94.53066282,38.90127496]}},{"type":"Feature","properties":{"Name":"Hubbell Trading Post National Historic Site","Park Code":"HUTR","Region":"IMR","State":"AZ","Park Website":"https://www.nps.gov/HUTR/index.htm","See Observations in iNaturalist":"http://www.inaturalist.org/observations?place_id=95237&subview=grid"},"geometry":{"type":"Point","coordinates":[-109.5599516,35.70727316]}},{"type":"Feature","properties":{"Name":"Ice Age National Scenic Trail","Park Code":"IATR","Region":"MWR","State":"WI","Park Website":"https://www.nps.gov/IATR/index.htm","See Observations in iNaturalist":"http://www.inaturalist.org/observations?place_id=97429&subview=grid"},"geometry":{"type":"Point","coordinates":[-89.6168989,43.07758823]}},{"type":"Feature","properties":{"Name":"Illinois and Michigan Canal National Heritage Corridor","Park Code":"ILMI","Region":"MWR","State":"IL","Park Website":"https://www.nps.gov/ILMI/index.htm","See Observations in iNaturalist":"http://www.inaturalist.org/observations?place_id=97430&subview=grid"},"geometry":{"type":"Point","coordinates":[-88.48014499,41.33074149]}},{"type":"Feature","properties":{"Name":"Independence National Historical Park","Park Code":"INDE","Region":"NER","State":"PA","Park Website":"https://www.nps.gov/INDE/index.htm","See Observations in iNaturalist":"http://www.inaturalist.org/observations?place_id=95238&subview=grid"},"geometry":{"type":"Point","coordinates":[-75.14692521,39.9453737]}},{"type":"Feature","properties":{"Name":"Indiana Dunes National Lakeshore","Park Code":"INDU","Region":"MWR","State":"IN","Park Website":"https://www.nps.gov/INDU/index.htm","See Observations in iNaturalist":"http://www.inaturalist.org/observations?place_id=95241&subview=grid"},"geometry":{"type":"Point","coordinates":[-87.03253334,41.66141521]}},{"type":"Feature","properties":{"Name":"Isle Royale National Park","Park Code":"ISRO","Region":"MWR","State":"MI","Park Website":"https://www.nps.gov/ISRO/index.htm","See Observations in iNaturalist":"http://www.inaturalist.org/observations?place_id=95245&subview=grid"},"geometry":{"type":"Point","coordinates":[-88.82842252,48.01095485]}},{"type":"Feature","properties":{"Name":"James A. Garfield National Historic Site","Park Code":"JAGA","Region":"MWR","State":"OH","Park Website":"https://www.nps.gov/JAGA/index.htm","See Observations in iNaturalist":"http://www.inaturalist.org/observations?place_id=95242&subview=grid"},"geometry":{"type":"Point","coordinates":[-81.35086557,41.66486548]}},{"type":"Feature","properties":{"Name":"Jewel Cave National Monument","Park Code":"JECA","Region":"MWR","State":"SD","Park Website":"https://www.nps.gov/JECA/index.htm","See Observations in iNaturalist":"http://www.inaturalist.org/observations?place_id=95228&subview=grid"},"geometry":{"type":"Point","coordinates":[-103.829994,43.7310286]}},{"type":"Feature","properties":{"Name":"Jefferson National Expansion Memorial","Park Code":"JEFF","Region":"MWR","State":"MO","Park Website":"https://www.nps.gov/JEFF/index.htm","See Observations in iNaturalist":"http://www.inaturalist.org/observations?place_id=95246&subview=grid"},"geometry":{"type":"Point","coordinates":[-90.17562932,38.6221161]}},{"type":"Feature","properties":{"Name":"Thomas Jefferson Memorial","Park Code":"JEFM","Region":"NCR","State":"DC","Park Website":"https://www.nps.gov/JEFM/index.htm","See Observations in iNaturalist":"http://www.inaturalist.org/observations?place_id=97432&subview=grid"},"geometry":{"type":"Point","coordinates":[-77.03632573,38.8810143]}},{"type":"Feature","properties":{"Name":"Jean Lafitte National Historical Park and Preserve","Park Code":"JELA","Region":"SER","State":"LA","Park Website":"https://www.nps.gov/JELA/index.htm","See Observations in iNaturalist":"http://www.inaturalist.org/observations?place_id=54005&subview=grid"},"geometry":{"type":"Point","coordinates":[-90.14721028,29.81916125]}},{"type":"Feature","properties":{"Name":"Jimmy Carter National Historic Site","Park Code":"JICA","Region":"SER","State":"GA","Park Website":"https://www.nps.gov/JICA/index.htm","See Observations in iNaturalist":"http://www.inaturalist.org/observations?place_id=95215&subview=grid"},"geometry":{"type":"Point","coordinates":[-84.43240803,32.02631793]}},{"type":"Feature","properties":{"Name":"John Day Fossil Beds National Monument","Park Code":"JODA","Region":"PWR","State":"OR","Park Website":"https://www.nps.gov/JODA/index.htm","See Observations in iNaturalist":"http://www.inaturalist.org/observations?place_id=95248&subview=grid"},"geometry":{"type":"Point","coordinates":[-119.6343185,44.543136]}},{"type":"Feature","properties":{"Name":"John D. Rockefeller, Jr. Memorial Parkway","Park Code":"JODR","Region":"IMR","State":"WY","Park Website":"https://www.nps.gov/JODR/index.htm","See Observations in iNaturalist":"http://www.inaturalist.org/observations?place_id=95252&subview=grid"},"geometry":{"type":"Point","coordinates":[-110.7280424,44.08869783]}},{"type":"Feature","properties":{"Name":"John Fitzgerald Kennedy National Historic Site","Park Code":"JOFI","Region":"NER","State":"MA","Park Website":"https://www.nps.gov/JOFI/index.htm","See Observations in iNaturalist":"http://www.inaturalist.org/observations?place_id=95253&subview=grid"},"geometry":{"type":"Point","coordinates":[-71.12323846,42.34693694]}},{"type":"Feature","properties":{"Name":"John F. Kennedy Center for Performing Arts","Park Code":"JOFK","Region":"NCR","State":"DC","Park Website":"https://www.nps.gov/JOFK/index.htm","See Observations in iNaturalist":"http://www.inaturalist.org/observations?place_id=97434&subview=grid"},"geometry":{"type":"Point","coordinates":[-77.05558703,38.89594255]}},{"type":"Feature","properties":{"Name":"Johnstown Flood National Memorial","Park Code":"JOFL","Region":"NER","State":"PA","Park Website":"https://www.nps.gov/JOFL/index.htm","See Observations in iNaturalist":"http://www.inaturalist.org/observations?place_id=95254&subview=grid"},"geometry":{"type":"Point","coordinates":[-78.77673481,40.3449218]}},{"type":"Feature","properties":{"Name":"John Muir National Historic Site","Park Code":"JOMU","Region":"PWR","State":"CA","Park Website":"https://www.nps.gov/JOMU/index.htm","See Observations in iNaturalist":"http://www.inaturalist.org/observations?place_id=5330&subview=grid"},"geometry":{"type":"Point","coordinates":[-122.13266,37.98263441]}},{"type":"Feature","properties":{"Name":"Joshua Tree National Park","Park Code":"JOTR","Region":"PWR","State":"CA","Park Website":"https://www.nps.gov/JOTR/index.htm","See Observations in iNaturalist":"http://www.inaturalist.org/observations?place_id=3680&subview=grid"},"geometry":{"type":"Point","coordinates":[-115.8601108,33.82705237]}},{"type":"Feature","properties":{"Name":"Kaloko-Honokohau National Historical Park","Park Code":"KAHO","Region":"PWR","State":"HI","Park Website":"https://www.nps.gov/KAHO/index.htm","See Observations in iNaturalist":"http://www.inaturalist.org/observations?place_id=95255&subview=grid"},"geometry":{"type":"Point","coordinates":[-156.0307196,19.68082506]}},{"type":"Feature","properties":{"Name":"Kalaupapa National Historical Park","Park Code":"KALA","Region":"PWR","State":"HI","Park Website":"https://www.nps.gov/KALA/index.htm","See Observations in iNaturalist":"http://www.inaturalist.org/observations?place_id=95256&subview=grid"},"geometry":{"type":"Point","coordinates":[-156.9246498,21.15464089]}},{"type":"Feature","properties":{"Name":"Katmai National Park","Park Code":"KATM","Region":"AKR","State":"AK","Park Website":"https://www.nps.gov/KATM/index.htm","See Observations in iNaturalist":"http://www.inaturalist.org/observations?place_id=95257&subview=grid"},"geometry":{"type":"Point","coordinates":[-154.9796338,58.56275321]}},{"type":"Feature","properties":{"Name":"Kenai Fjords National Park","Park Code":"KEFJ","Region":"AKR","State":"AK","Park Website":"https://www.nps.gov/KEFJ/index.htm","See Observations in iNaturalist":"http://www.inaturalist.org/observations?place_id=95258&subview=grid"},"geometry":{"type":"Point","coordinates":[-149.8815245,59.95320812]}},{"type":"Feature","properties":{"Name":"Kennesaw Mountain National Battlefield Park","Park Code":"KEMO","Region":"SER","State":"GA","Park Website":"https://www.nps.gov/KEMO/index.htm","See Observations in iNaturalist":"http://www.inaturalist.org/observations?place_id=95249&subview=grid"},"geometry":{"type":"Point","coordinates":[-84.57891656,33.97805859]}},{"type":"Feature","properties":{"Name":"Keweenaw National Historical Park","Park Code":"KEWE","Region":"MWR","State":"MI","Park Website":"https://www.nps.gov/KEWE/index.htm","See Observations in iNaturalist":"http://www.inaturalist.org/observations?place_id=95229&subview=grid"},"geometry":{"type":"Point","coordinates":[-88.56870596,47.13815614]}},{"type":"Feature","properties":{"Name":"Kings Canyon National Park","Park Code":"KICA","Region":"PWR","State":"CA","Park Website":"https://www.nps.gov/KICA/index.htm","See Observations in iNaturalist":"http://www.inaturalist.org/observations?place_id=3378&subview=grid"},"geometry":{"type":"Point","coordinates":[-118.5872447,36.89861451]}},{"type":"Feature","properties":{"Name":"Kings Mountain National Military Park","Park Code":"KIMO","Region":"SER","State":"SC","Park Website":"https://www.nps.gov/KIMO/index.htm","See Observations in iNaturalist":"http://www.inaturalist.org/observations?place_id=95260&subview=grid"},"geometry":{"type":"Point","coordinates":[-81.38978804,35.13900554]}},{"type":"Feature","properties":{"Name":"Klondike Gold Rush National Historical Park","Park Code":"KLGO","Region":"AKR","State":"AK","Park Website":"https://www.nps.gov/KLGO/index.htm","See Observations in iNaturalist":"http://www.inaturalist.org/observations?place_id=95264&subview=grid"},"geometry":{"type":"Point","coordinates":[-135.2926367,59.63158703]}},{"type":"Feature","properties":{"Name":"Knife River Indian Villages National Historic Site","Park Code":"KNRI","Region":"MWR","State":"ND","Park Website":"https://www.nps.gov/KNRI/index.htm","See Observations in iNaturalist":"http://www.inaturalist.org/observations?place_id=95265&subview=grid"},"geometry":{"type":"Point","coordinates":[-101.3920156,47.36850054]}},{"type":"Feature","properties":{"Name":"Kobuk Valley National Park","Park Code":"KOVA","Region":"AKR","State":"AK","Park Website":"https://www.nps.gov/KOVA/index.htm","See Observations in iNaturalist":"http://www.inaturalist.org/observations?place_id=69115&subview=grid"},"geometry":{"type":"Point","coordinates":[-159.1988853,67.35336474]}},{"type":"Feature","properties":{"Name":"Korean War Veterans Memorial","Park Code":"KOWA","Region":"NCR","State":"DC","Park Website":"https://www.nps.gov/KOWA/index.htm","See Observations in iNaturalist":"http://www.inaturalist.org/observations?place_id=97436&subview=grid"},"geometry":{"type":"Point","coordinates":[-77.04807734,38.88792133]}},{"type":"Feature","properties":{"Name":"Lava Beds National Monument","Park Code":"LABE","Region":"PWR","State":"CA","Park Website":"https://www.nps.gov/LABE/index.htm","See Observations in iNaturalist":"http://www.inaturalist.org/observations?place_id=4512&subview=grid"},"geometry":{"type":"Point","coordinates":[-121.5178032,41.75872643]}},{"type":"Feature","properties":{"Name":"Lake Chelan National Recreation Area","Park Code":"LACH","Region":"PWR","State":"WA","Park Website":"https://www.nps.gov/LACH/index.htm","See Observations in iNaturalist":"http://www.inaturalist.org/observations?place_id=95266&subview=grid"},"geometry":{"type":"Point","coordinates":[-120.6999037,48.38241796]}},{"type":"Feature","properties":{"Name":"Lake Clark National Park","Park Code":"LACL","Region":"AKR","State":"AK","Park Website":"https://www.nps.gov/LACL/index.htm","See Observations in iNaturalist":"http://www.inaturalist.org/observations?place_id=69114&subview=grid"},"geometry":{"type":"Point","coordinates":[-153.2488147,60.5472857]}},{"type":"Feature","properties":{"Name":"Lake Mead National Recreation Area","Park Code":"LAKE","Region":"PWR","State":"NV","Park Website":"https://www.nps.gov/LAKE/index.htm","See Observations in iNaturalist":"http://www.inaturalist.org/observations?place_id=95269&subview=grid"},"geometry":{"type":"Point","coordinates":[-114.6519029,35.71471937]}},{"type":"Feature","properties":{"Name":"Lake Meredith National Recreation Area","Park Code":"LAMR","Region":"IMR","State":"TX","Park Website":"https://www.nps.gov/LAMR/index.htm","See Observations in iNaturalist":"http://www.inaturalist.org/observations?place_id=95271&subview=grid"},"geometry":{"type":"Point","coordinates":[-101.6970984,35.59585691]}},{"type":"Feature","properties":{"Name":"Lake Roosevelt National Recreation Area","Park Code":"LARO","Region":"PWR","State":"WA","Park Website":"https://www.nps.gov/LARO/index.htm","See Observations in iNaturalist":"http://www.inaturalist.org/observations?place_id=95272&subview=grid"},"geometry":{"type":"Point","coordinates":[-118.7151536,47.9116375]}},{"type":"Feature","properties":{"Name":"Lassen Volcanic National Park","Park Code":"LAVO","Region":"PWR","State":"CA","Park Website":"https://www.nps.gov/LAVO/index.htm","See Observations in iNaturalist":"http://www.inaturalist.org/observations?place_id=4509&subview=grid"},"geometry":{"type":"Point","coordinates":[-121.4072048,40.49378739]}},{"type":"Feature","properties":{"Name":"Lewis and Clark National Historic Trail","Park Code":"LECL","Region":"MWR","State":"NE","Park Website":"https://www.nps.gov/LECL/index.htm","See Observations in iNaturalist":"http://www.inaturalist.org/observations?place_id=95273&subview=grid"},"geometry":{"type":"Point","coordinates":[-95.83244759,40.66418466]}},{"type":"Feature","properties":{"Name":"Lewis and Clark National Historical Park","Park Code":"LEWI","Region":"PWR","State":"WA","Park Website":"https://www.nps.gov/LEWI/index.htm","See Observations in iNaturalist":"http://www.inaturalist.org/observations?place_id=95274&subview=grid"},"geometry":{"type":"Point","coordinates":[-124.0676324,46.28618254]}},{"type":"Feature","properties":{"Name":"Little Bighorn Battlefield National Monument","Park Code":"LIBI","Region":"IMR","State":"MT","Park Website":"https://www.nps.gov/LIBI/index.htm","See Observations in iNaturalist":"http://www.inaturalist.org/observations?place_id=95261&subview=grid"},"geometry":{"type":"Point","coordinates":[-107.4286363,45.56505379]}},{"type":"Feature","properties":{"Name":"Lincoln Boyhood National Memorial","Park Code":"LIBO","Region":"MWR","State":"IN","Park Website":"https://www.nps.gov/LIBO/index.htm","See Observations in iNaturalist":"http://www.inaturalist.org/observations?place_id=95222&subview=grid"},"geometry":{"type":"Point","coordinates":[-86.99656863,38.11816976]}},{"type":"Feature","properties":{"Name":"Lincoln Home National Historic Site","Park Code":"LIHO","Region":"MWR","State":"IL","Park Website":"https://www.nps.gov/LIHO/index.htm","See Observations in iNaturalist":"http://www.inaturalist.org/observations?place_id=95232&subview=grid"},"geometry":{"type":"Point","coordinates":[-89.64513397,39.79715641]}},{"type":"Feature","properties":{"Name":"Lincoln Memorial","Park Code":"LINC","Region":"NCR","State":"DC","Park Website":"https://www.nps.gov/LINC/index.htm","See Observations in iNaturalist":"http://www.inaturalist.org/observations?place_id=97437&subview=grid"},"geometry":{"type":"Point","coordinates":[-77.05017778,38.88927229]}},{"type":"Feature","properties":{"Name":"Little River Canyon National Preserve","Park Code":"LIRI","Region":"SER","State":"AL","Park Website":"https://www.nps.gov/LIRI/index.htm","See Observations in iNaturalist":"http://www.inaturalist.org/observations?place_id=95234&subview=grid"},"geometry":{"type":"Point","coordinates":[-85.59724642,34.4519056]}},{"type":"Feature","properties":{"Name":"Longfellow National Historic Site","Park Code":"LONG","Region":"NER","State":"MA","Park Website":"https://www.nps.gov/LONG/index.htm","See Observations in iNaturalist":"http://www.inaturalist.org/observations?place_id=95239&subview=grid"},"geometry":{"type":"Point","coordinates":[-71.12636956,42.37698853]}},{"type":"Feature","properties":{"Name":"Lower Saint Croix National Scenic Riverway","Park Code":"LOSA","Region":"MWR","State":"WI","Park Website":"https://www.nps.gov/LOSA/index.htm","See Observations in iNaturalist":"http://www.inaturalist.org/observations?place_id=97439&subview=grid"},"geometry":{"type":"Point","coordinates":[-92.70445977,45.34489814]}},{"type":"Feature","properties":{"Name":"Lowell National Historical Park","Park Code":"LOWE","Region":"NER","State":"MA","Park Website":"https://www.nps.gov/LOWE/index.htm","See Observations in iNaturalist":"http://www.inaturalist.org/observations?place_id=95244&subview=grid"},"geometry":{"type":"Point","coordinates":[-71.33094285,42.64646574]}},{"type":"Feature","properties":{"Name":"Lyndon Baines Johnson Grove National Memorial","Park Code":"LYBA","Region":"NCR","State":"DC","Park Website":"https://www.nps.gov/LYBA/index.htm","See Observations in iNaturalist":"http://www.inaturalist.org/observations?place_id=97438&subview=grid"},"geometry":{"type":"Point","coordinates":[-77.0514583,38.87858032]}},{"type":"Feature","properties":{"Name":"Lyndon B. Johnson National Historical Park","Park Code":"LYJO","Region":"IMR","State":"TX","Park Website":"https://www.nps.gov/LYJO/index.htm","See Observations in iNaturalist":"http://www.inaturalist.org/observations?place_id=95275&subview=grid"},"geometry":{"type":"Point","coordinates":[-98.62166112,30.25032439]}},{"type":"Feature","properties":{"Name":"Mary McLeod Bethune Council House National Historic Site","Park Code":"MABE","Region":"NCR","State":"DC","Park Website":"https://www.nps.gov/MABE/index.htm","See Observations in iNaturalist":"http://www.inaturalist.org/observations?place_id=97440&subview=grid"},"geometry":{"type":"Point","coordinates":[-77.03096513,38.90818332]}},{"type":"Feature","properties":{"Name":"Marsh-Billings-Rockefeller National Historical Park","Park Code":"MABI","Region":"NER","State":"VT","Park Website":"https://www.nps.gov/MABI/index.htm","See Observations in iNaturalist":"http://www.inaturalist.org/observations?place_id=55121&subview=grid"},"geometry":{"type":"Point","coordinates":[-72.53823839,43.63382235]}},{"type":"Feature","properties":{"Name":"Mammoth Cave National Park","Park Code":"MACA","Region":"SER","State":"KY","Park Website":"https://www.nps.gov/MACA/index.htm","See Observations in iNaturalist":"http://www.inaturalist.org/observations?place_id=72649&subview=grid"},"geometry":{"type":"Point","coordinates":[-86.13089476,37.19758047]}},{"type":"Feature","properties":{"Name":"Martin Luther King Jr. National Historic Site","Park Code":"MALU","Region":"SER","State":"GA","Park Website":"https://www.nps.gov/MALU/index.htm","See Observations in iNaturalist":"http://www.inaturalist.org/observations?place_id=95277&subview=grid"},"geometry":{"type":"Point","coordinates":[-84.3716933,33.75492007]}},{"type":"Feature","properties":{"Name":"Manassas National Battlefield Park","Park Code":"MANA","Region":"NCR","State":"VA","Park Website":"https://www.nps.gov/MANA/index.htm","See Observations in iNaturalist":"http://www.inaturalist.org/observations?place_id=97441&subview=grid"},"geometry":{"type":"Point","coordinates":[-77.53003926,38.82077103]}},{"type":"Feature","properties":{"Name":"Manzanar National Historic Site","Park Code":"MANZ","Region":"PWR","State":"CA","Park Website":"https://www.nps.gov/MANZ/index.htm","See Observations in iNaturalist":"http://www.inaturalist.org/observations?place_id=4513&subview=grid"},"geometry":{"type":"Point","coordinates":[-118.1547178,36.72559147]}},{"type":"Feature","properties":{"Name":"Martin Van Buren National Historic Site","Park Code":"MAVA","Region":"NER","State":"NY","Park Website":"https://www.nps.gov/MAVA/index.htm","See Observations in iNaturalist":"http://www.inaturalist.org/observations?place_id=95270&subview=grid"},"geometry":{"type":"Point","coordinates":[-73.71529506,42.36666376]}},{"type":"Feature","properties":{"Name":"Maggie L. Walker National Historic Site","Park Code":"MAWA","Region":"NER","State":"VA","Park Website":"https://www.nps.gov/MAWA/index.htm","See Observations in iNaturalist":"http://www.inaturalist.org/observations?place_id=95278&subview=grid"},"geometry":{"type":"Point","coordinates":[-77.43674808,37.54732825]}},{"type":"Feature","properties":{"Name":"Mesa Verde National Park","Park Code":"MEVE","Region":"IMR","State":"CO","Park Website":"https://www.nps.gov/MEVE/index.htm","See Observations in iNaturalist":"http://www.inaturalist.org/observations?place_id=69108&subview=grid"},"geometry":{"type":"Point","coordinates":[-108.5009289,37.22348339]}},{"type":"Feature","properties":{"Name":"Minidoka National Historic Site","Park Code":"MIIN","Region":"PWR","State":"WA","Park Website":"https://www.nps.gov/MIIN/index.htm","See Observations in iNaturalist":"http://www.inaturalist.org/observations?place_id=95283&subview=grid"},"geometry":{"type":"Point","coordinates":[-114.2449294,42.68068468]}},{"type":"Feature","properties":{"Name":"Minute Man National Historical Park","Park Code":"MIMA","Region":"NER","State":"MA","Park Website":"https://www.nps.gov/MIMA/index.htm","See Observations in iNaturalist":"http://www.inaturalist.org/observations?place_id=95279&subview=grid"},"geometry":{"type":"Point","coordinates":[-71.29604682,42.45340032]}},{"type":"Feature","properties":{"Name":"Minuteman Missile National Historic Site","Park Code":"MIMI","Region":"MWR","State":"SD","Park Website":"https://www.nps.gov/MIMI/index.htm","See Observations in iNaturalist":"http://www.inaturalist.org/observations?place_id=95143&subview=grid"},"geometry":{"type":"Point","coordinates":[-101.9004328,43.84457664]}},{"type":"Feature","properties":{"Name":"Mississippi National River and Recreation Area","Park Code":"MISS","Region":"MWR","State":"MN","Park Website":"https://www.nps.gov/MISS/index.htm","See Observations in iNaturalist":"http://www.inaturalist.org/observations?place_id=95153&subview=grid"},"geometry":{"type":"Point","coordinates":[-92.93011156,44.77223486]}},{"type":"Feature","properties":{"Name":"Martin Luther King Jr Memorial","Park Code":"MLKM","Region":"NCR","State":"DC","Park Website":"https://www.nps.gov/MLKM/index.htm","See Observations in iNaturalist":"http://www.inaturalist.org/observations?place_id=97445&subview=grid"},"geometry":{"type":"Point","coordinates":[-77.04439707,38.88628209]}},{"type":"Feature","properties":{"Name":"Missouri National Recreation River","Park Code":"MNRR","Region":"MWR","State":"SD","Park Website":"https://www.nps.gov/MNRR/index.htm","See Observations in iNaturalist":"http://www.inaturalist.org/observations?place_id=95154&subview=grid"},"geometry":{"type":"Point","coordinates":[-97.07068502,42.76717171]}},{"type":"Feature","properties":{"Name":"Montezuma Castle National Monument","Park Code":"MOCA","Region":"IMR","State":"AZ","Park Website":"https://www.nps.gov/MOCA/index.htm","See Observations in iNaturalist":"http://www.inaturalist.org/observations?place_id=95155&subview=grid"},"geometry":{"type":"Point","coordinates":[-111.8366153,34.61102059]}},{"type":"Feature","properties":{"Name":"Moores Creek National Battlefield","Park Code":"MOCR","Region":"SER","State":"NC","Park Website":"https://www.nps.gov/MOCR/index.htm","See Observations in iNaturalist":"http://www.inaturalist.org/observations?place_id=95158&subview=grid"},"geometry":{"type":"Point","coordinates":[-78.11031132,34.45820773]}},{"type":"Feature","properties":{"Name":"Mojave National Preserve","Park Code":"MOJA","Region":"PWR","State":"CA","Park Website":"https://www.nps.gov/MOJA/index.htm","See Observations in iNaturalist":"http://www.inaturalist.org/observations?place_id=3958&subview=grid"},"geometry":{"type":"Point","coordinates":[-115.5143543,35.11418232]}},{"type":"Feature","properties":{"Name":"Monocacy National Battlefield","Park Code":"MONO","Region":"NCR","State":"MD","Park Website":"https://www.nps.gov/MONO/index.htm","See Observations in iNaturalist":"http://www.inaturalist.org/observations?place_id=97466&subview=grid"},"geometry":{"type":"Point","coordinates":[-77.40246951,39.35769765]}},{"type":"Feature","properties":{"Name":"Mount Rainier National Park","Park Code":"MORA","Region":"PWR","State":"WA","Park Website":"https://www.nps.gov/MORA/index.htm","See Observations in iNaturalist":"http://www.inaturalist.org/observations?place_id=8838&subview=grid"},"geometry":{"type":"Point","coordinates":[-121.7043729,46.86060444]}},{"type":"Feature","properties":{"Name":"Morristown National Historical Park","Park Code":"MORR","Region":"NER","State":"NJ","Park Website":"https://www.nps.gov/MORR/index.htm","See Observations in iNaturalist":"http://www.inaturalist.org/observations?place_id=95280&subview=grid"},"geometry":{"type":"Point","coordinates":[-74.53749376,40.76780365]}},{"type":"Feature","properties":{"Name":"Mount Rushmore National Memorial","Park Code":"MORU","Region":"MWR","State":"SD","Park Website":"https://www.nps.gov/MORU/index.htm","See Observations in iNaturalist":"http://www.inaturalist.org/observations?place_id=95281&subview=grid"},"geometry":{"type":"Point","coordinates":[-103.4525188,43.88036924]}},{"type":"Feature","properties":{"Name":"Muir Woods National Monument","Park Code":"MUWO","Region":"PWR","State":"CA","Park Website":"https://www.nps.gov/MUWO/index.htm","See Observations in iNaturalist":"http://www.inaturalist.org/observations?place_id=5603&subview=grid"},"geometry":{"type":"Point","coordinates":[-122.583964,37.89846858]}},{"type":"Feature","properties":{"Name":"Natural Bridges National Monument","Park Code":"NABR","Region":"IMR","State":"UT","Park Website":"https://www.nps.gov/NABR/index.htm","See Observations in iNaturalist":"http://www.inaturalist.org/observations?place_id=95285&subview=grid"},"geometry":{"type":"Point","coordinates":[-110.0022454,37.60452811]}},{"type":"Feature","properties":{"Name":"National Capital Parks","Park Code":"NACA","Region":"NCR","State":"DC","Park Website":"https://www.nps.gov/NACA/index.htm","See Observations in iNaturalist":"http://www.inaturalist.org/observations?place_id=97469&subview=grid"},"geometry":{"type":"Point","coordinates":[-76.83522058,39.06319291]}},{"type":"Feature","properties":{"Name":"National Capital Parks - East","Park Code":"NACE","Region":"NCR","State":"DC","Park Website":"https://www.nps.gov/NACE/index.htm","See Observations in iNaturalist":"http://www.inaturalist.org/observations?place_id=97444&subview=grid"},"geometry":{"type":"Point","coordinates":[-76.94934656,38.87756927]}},{"type":"Feature","properties":{"Name":"National Mall","Park Code":"NAMA","Region":"NCR","State":"DC","Park Website":"https://www.nps.gov/NAMA/index.htm","See Observations in iNaturalist":"http://www.inaturalist.org/observations?place_id=97400&subview=grid"},"geometry":{"type":"Point","coordinates":[-77.02278438,38.88986603]}},{"type":"Feature","properties":{"Name":"Natchez National Historical Park","Park Code":"NATC","Region":"SER","State":"MS","Park Website":"https://www.nps.gov/NATC/index.htm","See Observations in iNaturalist":"http://www.inaturalist.org/observations?place_id=95206&subview=grid"},"geometry":{"type":"Point","coordinates":[-91.38244977,31.54301947]}},{"type":"Feature","properties":{"Name":"Natchez Trace Parkway and National Scenic Trail","Park Code":"NATR","Region":"SER","State":"AL","Park Website":"https://www.nps.gov/NATR/index.htm","See Observations in iNaturalist":""},"geometry":{"type":"Point","coordinates":[-89.65421359,32.87003986]}},{"type":"Feature","properties":{"Name":"Navajo National Monument","Park Code":"NAVA","Region":"IMR","State":"AZ","Park Website":"https://www.nps.gov/NAVA/index.htm","See Observations in iNaturalist":"http://www.inaturalist.org/observations?place_id=95286&subview=grid"},"geometry":{"type":"Point","coordinates":[-110.5362565,36.68549118]}},{"type":"Feature","properties":{"Name":"New Bedford Whaling National Historical Park","Park Code":"NEBE","Region":"NER","State":"MA","Park Website":"https://www.nps.gov/NEBE/index.htm","See Observations in iNaturalist":"http://www.inaturalist.org/observations?place_id=95196&subview=grid"},"geometry":{"type":"Point","coordinates":[-70.92319615,41.63564794]}},{"type":"Feature","properties":{"Name":"Nez Perce National Historical Park","Park Code":"NEPE","Region":"PWR","State":"WA","Park Website":"https://www.nps.gov/NEPE/index.htm","See Observations in iNaturalist":"http://www.inaturalist.org/observations?place_id=95197&subview=grid"},"geometry":{"type":"Point","coordinates":[-116.2780221,45.79427929]}},{"type":"Feature","properties":{"Name":"New River Gorge National River","Park Code":"NERI","Region":"NER","State":"VA","Park Website":"https://www.nps.gov/NERI/index.htm","See Observations in iNaturalist":"http://www.inaturalist.org/observations?place_id=95209&subview=grid"},"geometry":{"type":"Point","coordinates":[-80.98970436,37.84026469]}},{"type":"Feature","properties":{"Name":"Nicodemus National Historic Site","Park Code":"NICO","Region":"MWR","State":"KS","Park Website":"https://www.nps.gov/NICO/index.htm","See Observations in iNaturalist":"http://www.inaturalist.org/observations?place_id=95217&subview=grid"},"geometry":{"type":"Point","coordinates":[-99.61787258,39.39038861]}},{"type":"Feature","properties":{"Name":"Niobrara National Scenic River","Park Code":"NIOB","Region":"MWR","State":"NE","Park Website":"https://www.nps.gov/NIOB/index.htm","See Observations in iNaturalist":"http://www.inaturalist.org/observations?place_id=95218&subview=grid"},"geometry":{"type":"Point","coordinates":[-99.63194158,42.72586213]}},{"type":"Feature","properties":{"Name":"Ninety Six National Historic Site","Park Code":"NISI","Region":"SER","State":"SC","Park Website":"https://www.nps.gov/NISI/index.htm","See Observations in iNaturalist":"http://www.inaturalist.org/observations?place_id=95287&subview=grid"},"geometry":{"type":"Point","coordinates":[-82.01636093,34.1427351]}},{"type":"Feature","properties":{"Name":"Noatak National Preserve","Park Code":"NOAT","Region":"AKR","State":"AK","Park Website":"https://www.nps.gov/NOAT/index.htm","See Observations in iNaturalist":"http://www.inaturalist.org/observations?place_id=95288&subview=grid"},"geometry":{"type":"Point","coordinates":[-159.3944863,68.18143909]}},{"type":"Feature","properties":{"Name":"North Cascades National Park","Park Code":"NOCA","Region":"PWR","State":"WA","Park Website":"https://www.nps.gov/NOCA/index.htm","See Observations in iNaturalist":"http://www.inaturalist.org/observations?place_id=97435&subview=grid"},"geometry":{"type":"Point","coordinates":[-121.3466097,48.83319999]}},{"type":"Feature","properties":{"Name":"National Park of American Samoa National Park","Park Code":"NPSA","Region":"PWR","State":"AS","Park Website":"https://www.nps.gov/NPSA/index.htm","See Observations in iNaturalist":"http://www.inaturalist.org/observations?place_id=73645&subview=grid"},"geometry":{"type":"Point","coordinates":[-169.4526019,-14.23749053]}},{"type":"Feature","properties":{"Name":"Obed Wild and Scenic River","Park Code":"OBRI","Region":"SER","State":"TN","Park Website":"https://www.nps.gov/OBRI/index.htm","See Observations in iNaturalist":"http://www.inaturalist.org/observations?place_id=95293&subview=grid"},"geometry":{"type":"Point","coordinates":[-84.72244778,36.08458016]}},{"type":"Feature","properties":{"Name":"Ocmulgee National Monument","Park Code":"OCMU","Region":"SER","State":"GA","Park Website":"https://www.nps.gov/OCMU/index.htm","See Observations in iNaturalist":"http://www.inaturalist.org/observations?place_id=65448&subview=grid"},"geometry":{"type":"Point","coordinates":[-83.59675984,32.83973829]}},{"type":"Feature","properties":{"Name":"Olympic National Park","Park Code":"OLYM","Region":"PWR","State":"WA","Park Website":"https://www.nps.gov/OLYM/index.htm","See Observations in iNaturalist":"http://www.inaturalist.org/observations?place_id=69094&subview=grid"},"geometry":{"type":"Point","coordinates":[-123.6183453,47.79456549]}},{"type":"Feature","properties":{"Name":"Oregon Caves National Monument","Park Code":"ORCA","Region":"PWR","State":"OR","Park Website":"https://www.nps.gov/ORCA/index.htm","See Observations in iNaturalist":"http://www.inaturalist.org/observations?place_id=95292&subview=grid"},"geometry":{"type":"Point","coordinates":[-123.4016405,42.1031365]}},{"type":"Feature","properties":{"Name":"Organ Pipe Cactus National Monument","Park Code":"ORPI","Region":"IMR","State":"AZ","Park Website":"https://www.nps.gov/ORPI/index.htm","See Observations in iNaturalist":"http://www.inaturalist.org/observations?place_id=95295&subview=grid"},"geometry":{"type":"Point","coordinates":[-112.8572827,32.03570575]}},{"type":"Feature","properties":{"Name":"Ozark National Scenic Riverway","Park Code":"OZAR","Region":"MWR","State":"MO","Park Website":"https://www.nps.gov/OZAR/index.htm","See Observations in iNaturalist":"http://www.inaturalist.org/observations?place_id=95296&subview=grid"},"geometry":{"type":"Point","coordinates":[-91.19602596,37.14716237]}},{"type":"Feature","properties":{"Name":"Palo Alto Battlefield National Historical Park","Park Code":"PAAL","Region":"IMR","State":"TX","Park Website":"https://www.nps.gov/PAAL/index.htm","See Observations in iNaturalist":"http://www.inaturalist.org/observations?place_id=95297&subview=grid"},"geometry":{"type":"Point","coordinates":[-97.4627218,26.02474215]}},{"type":"Feature","properties":{"Name":"Pennsylvania Avenue National Historic Site","Park Code":"PAAV","Region":"NCR","State":"DC","Park Website":"https://www.nps.gov/PAAV/index.htm","See Observations in iNaturalist":"http://www.inaturalist.org/observations?place_id=97424&subview=grid"},"geometry":{"type":"Point","coordinates":[-77.0177561,38.89281849]}},{"type":"Feature","properties":{"Name":"Paterson Great Falls National Historical Park","Park Code":"PAGR","Region":"NER","State":"NJ","Park Website":"https://www.nps.gov/PAGR/index.htm","See Observations in iNaturalist":"http://www.inaturalist.org/observations?place_id=95298&subview=grid"},"geometry":{"type":"Point","coordinates":[-74.18022529,40.91589777]}},{"type":"Feature","properties":{"Name":"Padre Island National Seashore","Park Code":"PAIS","Region":"IMR","State":"TX","Park Website":"https://www.nps.gov/PAIS/index.htm","See Observations in iNaturalist":"http://www.inaturalist.org/observations?place_id=95300&subview=grid"},"geometry":{"type":"Point","coordinates":[-97.34068068,26.70366538]}},{"type":"Feature","properties":{"Name":"Pecos National Historical Park","Park Code":"PECO","Region":"IMR","State":"NM","Park Website":"https://www.nps.gov/PECO/index.htm","See Observations in iNaturalist":"http://www.inaturalist.org/observations?place_id=81179&subview=grid"},"geometry":{"type":"Point","coordinates":[-105.690831,35.54978457]}},{"type":"Feature","properties":{"Name":"Petrified Forest National Park","Park Code":"PEFO","Region":"IMR","State":"AZ","Park Website":"https://www.nps.gov/PEFO/index.htm","See Observations in iNaturalist":"http://www.inaturalist.org/observations?place_id=57573&subview=grid"},"geometry":{"type":"Point","coordinates":[-109.6747177,34.98864305]}},{"type":"Feature","properties":{"Name":"Pea Ridge National Military Park","Park Code":"PERI","Region":"MWR","State":"AR","Park Website":"https://www.nps.gov/PERI/index.htm","See Observations in iNaturalist":"http://www.inaturalist.org/observations?place_id=95302&subview=grid"},"geometry":{"type":"Point","coordinates":[-94.03444522,36.45477996]}},{"type":"Feature","properties":{"Name":"Petersburg National Battlefield","Park Code":"PETE","Region":"NER","State":"VA","Park Website":"https://www.nps.gov/PETE/index.htm","See Observations in iNaturalist":"http://www.inaturalist.org/observations?place_id=95306&subview=grid"},"geometry":{"type":"Point","coordinates":[-77.36301724,37.22799503]}},{"type":"Feature","properties":{"Name":"Petroglyph National Monument","Park Code":"PETR","Region":"IMR","State":"NM","Park Website":"https://www.nps.gov/PETR/index.htm","See Observations in iNaturalist":"http://www.inaturalist.org/observations?place_id=95307&subview=grid"},"geometry":{"type":"Point","coordinates":[-106.7522431,35.13426644]}},{"type":"Feature","properties":{"Name":"Perry's Victory and International Peace Memorial","Park Code":"PEVI","Region":"MWR","State":"OH","Park Website":"https://www.nps.gov/PEVI/index.htm","See Observations in iNaturalist":"http://www.inaturalist.org/observations?place_id=95308&subview=grid"},"geometry":{"type":"Point","coordinates":[-82.81190443,41.65379041]}},{"type":"Feature","properties":{"Name":"Hohokam Pima National Monument","Park Code":"PIMA","Region":"IMR","State":"AZ","Park Website":"https://www.nps.gov/PIMA/index.htm","See Observations in iNaturalist":"http://www.inaturalist.org/observations?place_id=95243&subview=grid"},"geometry":{"type":"Point","coordinates":[-111.9192739,33.18713816]}},{"type":"Feature","properties":{"Name":"Pinnacles National Park","Park Code":"PINN","Region":"PWR","State":"CA","Park Website":"https://www.nps.gov/PINN/index.htm","See Observations in iNaturalist":"http://www.inaturalist.org/observations?place_id=5737&subview=grid"},"geometry":{"type":"Point","coordinates":[-121.1809924,36.49021462]}},{"type":"Feature","properties":{"Name":"Pipestone National Monument","Park Code":"PIPE","Region":"MWR","State":"MN","Park Website":"https://www.nps.gov/PIPE/index.htm","See Observations in iNaturalist":"http://www.inaturalist.org/observations?place_id=82851&subview=grid"},"geometry":{"type":"Point","coordinates":[-96.32475523,44.01351938]}},{"type":"Feature","properties":{"Name":"Pictured Rocks National Lakeshore","Park Code":"PIRO","Region":"MWR","State":"MI","Park Website":"https://www.nps.gov/PIRO/index.htm","See Observations in iNaturalist":"http://www.inaturalist.org/observations?place_id=95250&subview=grid"},"geometry":{"type":"Point","coordinates":[-86.46694927,46.51352837]}},{"type":"Feature","properties":{"Name":"Piscataway Park","Park Code":"PISC","Region":"NCR","State":"MD","Park Website":"https://www.nps.gov/PISC/index.htm","See Observations in iNaturalist":"http://www.inaturalist.org/observations?place_id=97465&subview=grid"},"geometry":{"type":"Point","coordinates":[-77.05511417,38.68388278]}},{"type":"Feature","properties":{"Name":"Pipe Spring National Monument","Park Code":"PISP","Region":"IMR","State":"AZ","Park Website":"https://www.nps.gov/PISP/index.htm","See Observations in iNaturalist":"http://www.inaturalist.org/observations?place_id=95251&subview=grid"},"geometry":{"type":"Point","coordinates":[-112.7398567,36.86282664]}},{"type":"Feature","properties":{"Name":"Port Chicago Naval Magazine National Memorial","Park Code":"POCH","Region":"PWR","State":"CA","Park Website":"https://www.nps.gov/POCH/index.htm","See Observations in iNaturalist":"http://www.inaturalist.org/observations?place_id=95240&subview=grid"},"geometry":{"type":"Point","coordinates":[-122.0301603,38.05685471]}},{"type":"Feature","properties":{"Name":"Poverty Point National Monument","Park Code":"POPO","Region":"SER","State":"LA","Park Website":"https://www.nps.gov/POPO/index.htm","See Observations in iNaturalist":"http://www.inaturalist.org/observations?place_id=95247&subview=grid"},"geometry":{"type":"Point","coordinates":[-91.40874101,32.63529845]}},{"type":"Feature","properties":{"Name":"Point Reyes National Seashore","Park Code":"PORE","Region":"PWR","State":"CA","Park Website":"https://www.nps.gov/PORE/index.htm","See Observations in iNaturalist":"http://www.inaturalist.org/observations?place_id=5781&subview=grid"},"geometry":{"type":"Point","coordinates":[-122.8797044,38.05500555]}},{"type":"Feature","properties":{"Name":"Presidio of San Francisco","Park Code":"PRSF","Region":"PWR","State":"CA","Park Website":"https://www.nps.gov/PRSF/index.htm","See Observations in iNaturalist":"http://www.inaturalist.org/observations?place_id=97447&subview=grid"},"geometry":{"type":"Point","coordinates":[-122.467126,37.79703697]}},{"type":"Feature","properties":{"Name":"Prince William Forest Park","Park Code":"PRWI","Region":"NCR","State":"VA","Park Website":"https://www.nps.gov/PRWI/index.htm","See Observations in iNaturalist":"http://www.inaturalist.org/observations?place_id=97468&subview=grid"},"geometry":{"type":"Point","coordinates":[-77.39112608,38.57850513]}},{"type":"Feature","properties":{"Name":"Pu'ukohola Heiau National Historic Site","Park Code":"PUHE","Region":"PWR","State":"HI","Park Website":"https://www.nps.gov/PUHE/index.htm","See Observations in iNaturalist":"http://www.inaturalist.org/observations?place_id=72770&subview=grid"},"geometry":{"type":"Point","coordinates":[-155.8211629,20.02772183]}},{"type":"Feature","properties":{"Name":"Pu'uhonua o Honaunau National Historical Park","Park Code":"PUHO","Region":"PWR","State":"HI","Park Website":"https://www.nps.gov/PUHO/index.htm","See Observations in iNaturalist":"http://www.inaturalist.org/observations?place_id=95259&subview=grid"},"geometry":{"type":"Point","coordinates":[-155.8996777,19.40903135]}},{"type":"Feature","properties":{"Name":"Pullman National Monument","Park Code":"PULL","Region":"MWR","State":"IL","Park Website":"https://www.nps.gov/PULL/index.htm","See Observations in iNaturalist":"http://www.inaturalist.org/observations?place_id=95262&subview=grid"},"geometry":{"type":"Point","coordinates":[-87.60873824,41.69429163]}},{"type":"Feature","properties":{"Name":"Rainbow Bridge National Monument","Park Code":"RABR","Region":"IMR","State":"UT","Park Website":"https://www.nps.gov/RABR/index.htm","See Observations in iNaturalist":"http://www.inaturalist.org/observations?place_id=95263&subview=grid"},"geometry":{"type":"Point","coordinates":[-110.9655099,37.07788763]}},{"type":"Feature","properties":{"Name":"Redwood National Park","Park Code":"REDW","Region":"PWR","State":"CA","Park Website":"https://www.nps.gov/REDW/index.htm","See Observations in iNaturalist":"http://www.inaturalist.org/observations?place_id=6021&subview=grid"},"geometry":{"type":"Point","coordinates":[-124.0316551,41.37133097]}},{"type":"Feature","properties":{"Name":"Richmond National Battlefield Park","Park Code":"RICH","Region":"NER","State":"VA","Park Website":"https://www.nps.gov/RICH/index.htm","See Observations in iNaturalist":"http://www.inaturalist.org/observations?place_id=95267&subview=grid"},"geometry":{"type":"Point","coordinates":[-77.28293615,37.57661115]}},{"type":"Feature","properties":{"Name":"Rio Grande Wild and Scenic River","Park Code":"RIGR","Region":"IMR","State":"TX","Park Website":"https://www.nps.gov/RIGR/index.htm","See Observations in iNaturalist":"http://www.inaturalist.org/observations?place_id=95268&subview=grid"},"geometry":{"type":"Point","coordinates":[-102.5289706,29.75755733]}},{"type":"Feature","properties":{"Name":"River Raisin National Battlefield Park","Park Code":"RIRA","Region":"MWR","State":"MI","Park Website":"https://www.nps.gov/RIRA/index.htm","See Observations in iNaturalist":"http://www.inaturalist.org/observations?place_id=95276&subview=grid"},"geometry":{"type":"Point","coordinates":[-83.37620463,41.91291082]}},{"type":"Feature","properties":{"Name":"Rock Creek Park","Park Code":"ROCR","Region":"NCR","State":"DC","Park Website":"https://www.nps.gov/ROCR/index.htm","See Observations in iNaturalist":"http://www.inaturalist.org/observations?place_id=97467&subview=grid"},"geometry":{"type":"Point","coordinates":[-77.04605847,38.96274064]}},{"type":"Feature","properties":{"Name":"Ross Lake National Recreation Area","Park Code":"ROLA","Region":"PWR","State":"WA","Park Website":"https://www.nps.gov/ROLA/index.htm","See Observations in iNaturalist":"http://www.inaturalist.org/observations?place_id=95282&subview=grid"},"geometry":{"type":"Point","coordinates":[-121.1727833,48.70586052]}},{"type":"Feature","properties":{"Name":"Rocky Mountain National Park","Park Code":"ROMO","Region":"IMR","State":"CO","Park Website":"https://www.nps.gov/ROMO/index.htm","See Observations in iNaturalist":"http://www.inaturalist.org/observations?place_id=49676&subview=grid"},"geometry":{"type":"Point","coordinates":[-105.697769,40.35565995]}},{"type":"Feature","properties":{"Name":"Rosie the Riveter/World War II Home Front National Historical Park","Park Code":"RORI","Region":"PWR","State":"CA","Park Website":"https://www.nps.gov/RORI/index.htm","See Observations in iNaturalist":"http://www.inaturalist.org/observations?place_id=95284&subview=grid"},"geometry":{"type":"Point","coordinates":[-122.366535,37.9086682]}},{"type":"Feature","properties":{"Name":"Roger Williams National Memorial","Park Code":"ROWI","Region":"NER","State":"RI","Park Website":"https://www.nps.gov/ROWI/index.htm","See Observations in iNaturalist":"http://www.inaturalist.org/observations?place_id=95299&subview=grid"},"geometry":{"type":"Point","coordinates":[-71.41056665,41.82989549]}},{"type":"Feature","properties":{"Name":"Ronald Reagan Boyhood Home National Historic Site","Park Code":"RRBH","Region":"MWR","State":"IL","Park Website":"https://www.nps.gov/RRBH/index.htm","See Observations in iNaturalist":"http://www.inaturalist.org/observations?place_id=97448&subview=grid"},"geometry":{"type":"Point","coordinates":[-89.48053115,41.83621267]}},{"type":"Feature","properties":{"Name":"Russell Cave National Monument","Park Code":"RUCA","Region":"SER","State":"AL","Park Website":"https://www.nps.gov/RUCA/index.htm","See Observations in iNaturalist":"http://www.inaturalist.org/observations?place_id=95301&subview=grid"},"geometry":{"type":"Point","coordinates":[-85.81858648,34.97083923]}},{"type":"Feature","properties":{"Name":"San Antonio Missions National Historical Park","Park Code":"SAAN","Region":"IMR","State":"TX","Park Website":"https://www.nps.gov/SAAN/index.htm","See Observations in iNaturalist":"http://www.inaturalist.org/observations?place_id=95303&subview=grid"},"geometry":{"type":"Point","coordinates":[-98.45466742,29.33273056]}},{"type":"Feature","properties":{"Name":"Saint Croix National Scenic Riverway","Park Code":"SACN","Region":"MWR","State":"WI","Park Website":"https://www.nps.gov/SACN/index.htm","See Observations in iNaturalist":"http://www.inaturalist.org/observations?place_id=95304&subview=grid"},"geometry":{"type":"Point","coordinates":[-91.57848434,45.98021519]}},{"type":"Feature","properties":{"Name":"Saint Croix Island International Historic Site","Park Code":"SACR","Region":"NER","State":"ME","Park Website":"https://www.nps.gov/SACR/index.htm","See Observations in iNaturalist":"http://www.inaturalist.org/observations?place_id=95305&subview=grid"},"geometry":{"type":"Point","coordinates":[-67.13302086,45.12801161]}},{"type":"Feature","properties":{"Name":"San Francisco Maritime National Historical Park","Park Code":"SAFR","Region":"PWR","State":"CA","Park Website":"https://www.nps.gov/SAFR/index.htm","See Observations in iNaturalist":"http://www.inaturalist.org/observations?place_id=95289&subview=grid"},"geometry":{"type":"Point","coordinates":[-122.4244247,37.81006647]}},{"type":"Feature","properties":{"Name":"Saint-Gaudens National Historic Site","Park Code":"SAGA","Region":"NER","State":"NH","Park Website":"https://www.nps.gov/SAGA/index.htm","See Observations in iNaturalist":"http://www.inaturalist.org/observations?place_id=95309&subview=grid"},"geometry":{"type":"Point","coordinates":[-72.37403165,43.50046879]}},{"type":"Feature","properties":{"Name":"Saguaro National Park","Park Code":"SAGU","Region":"IMR","State":"AZ","Park Website":"https://www.nps.gov/SAGU/index.htm","See Observations in iNaturalist":"http://www.inaturalist.org/observations?place_id=65739&subview=grid"},"geometry":{"type":"Point","coordinates":[-110.6077205,32.17893415]}},{"type":"Feature","properties":{"Name":"Sagamore Hill National Historic Site","Park Code":"SAHI","Region":"NER","State":"NY","Park Website":"https://www.nps.gov/SAHI/index.htm","See Observations in iNaturalist":"http://www.inaturalist.org/observations?place_id=90359&subview=grid"},"geometry":{"type":"Point","coordinates":[-73.49668653,40.88557279]}},{"type":"Feature","properties":{"Name":"Saugus Iron Works National Historic Site","Park Code":"SAIR","Region":"NER","State":"MA","Park Website":"https://www.nps.gov/SAIR/index.htm","See Observations in iNaturalist":"http://www.inaturalist.org/observations?place_id=95311&subview=grid"},"geometry":{"type":"Point","coordinates":[-71.00775926,42.46849928]}},{"type":"Feature","properties":{"Name":"San Juan Island National Historical Park","Park Code":"SAJH","Region":"PWR","State":"WA","Park Website":"https://www.nps.gov/SAJH/index.htm","See Observations in iNaturalist":"http://www.inaturalist.org/observations?place_id=78789&subview=grid"},"geometry":{"type":"Point","coordinates":[-123.0049793,48.462114]}},{"type":"Feature","properties":{"Name":"San Juan National Historic Site","Park Code":"SAJU","Region":"SER","State":"PR","Park Website":"https://www.nps.gov/SAJU/index.htm","See Observations in iNaturalist":"http://www.inaturalist.org/observations?place_id=95313&subview=grid"},"geometry":{"type":"Point","coordinates":[-66.1174902,18.46884349]}},{"type":"Feature","properties":{"Name":"Salem Maritime National Historic Site","Park Code":"SAMA","Region":"NER","State":"MA","Park Website":"https://www.nps.gov/SAMA/index.htm","See Observations in iNaturalist":"http://www.inaturalist.org/observations?place_id=95314&subview=grid"},"geometry":{"type":"Point","coordinates":[-70.88683823,42.51959897]}},{"type":"Feature","properties":{"Name":"Santa Monica Mountains National Recreation Area","Park Code":"SAMO","Region":"PWR","State":"CA","Park Website":"https://www.nps.gov/SAMO/index.htm","See Observations in iNaturalist":"http://www.inaturalist.org/observations?place_id=3730&subview=grid"},"geometry":{"type":"Point","coordinates":[-118.7201796,34.08377085]}},{"type":"Feature","properties":{"Name":"Sand Creek Massacre National Historic Site","Park Code":"SAND","Region":"IMR","State":"CO","Park Website":"https://www.nps.gov/SAND/index.htm","See Observations in iNaturalist":"http://www.inaturalist.org/observations?place_id=95315&subview=grid"},"geometry":{"type":"Point","coordinates":[-102.5169514,38.56413439]}},{"type":"Feature","properties":{"Name":"Saint Paul's Church National Historic Site","Park Code":"SAPA","Region":"NER","State":"NY","Park Website":"https://www.nps.gov/SAPA/index.htm","See Observations in iNaturalist":"http://www.inaturalist.org/observations?place_id=95310&subview=grid"},"geometry":{"type":"Point","coordinates":[-73.82577277,40.89283511]}},{"type":"Feature","properties":{"Name":"Salinas Pueblo Missions National Monument","Park Code":"SAPU","Region":"IMR","State":"NM","Park Website":"https://www.nps.gov/SAPU/index.htm","See Observations in iNaturalist":"http://www.inaturalist.org/observations?place_id=95316&subview=grid"},"geometry":{"type":"Point","coordinates":[-106.0897997,34.25942389]}},{"type":"Feature","properties":{"Name":"Saratoga National Historical Park","Park Code":"SARA","Region":"NER","State":"NY","Park Website":"https://www.nps.gov/SARA/index.htm","See Observations in iNaturalist":"http://www.inaturalist.org/observations?place_id=95312&subview=grid"},"geometry":{"type":"Point","coordinates":[-73.63267353,42.994391]}},{"type":"Feature","properties":{"Name":"Salt River Bay National Historical Park","Park Code":"SARI","Region":"SER","State":"VI","Park Website":"https://www.nps.gov/SARI/index.htm","See Observations in iNaturalist":"http://www.inaturalist.org/observations?place_id=95319&subview=grid"},"geometry":{"type":"Point","coordinates":[-64.75519358,17.77908536]}},{"type":"Feature","properties":{"Name":"Scotts Bluff National Monument","Park Code":"SCBL","Region":"MWR","State":"NE","Park Website":"https://www.nps.gov/SCBL/index.htm","See Observations in iNaturalist":"http://www.inaturalist.org/observations?place_id=95320&subview=grid"},"geometry":{"type":"Point","coordinates":[-103.7072431,41.8347614]}},{"type":"Feature","properties":{"Name":"Sewall-Belmont House National Historic Site","Park Code":"SEBE","Region":"NCR","State":"DC","Park Website":"https://www.nps.gov/SEBE/index.htm","See Observations in iNaturalist":"http://www.inaturalist.org/observations?place_id=97450&subview=grid"},"geometry":{"type":"Point","coordinates":[-77.00361413,38.89225166]}},{"type":"Feature","properties":{"Name":"Selma to Montgomery National Historic Trail","Park Code":"SEMO","Region":"SER","State":"AL","Park Website":"https://www.nps.gov/SEMO/index.htm","See Observations in iNaturalist":"http://www.inaturalist.org/observations?place_id=97451&subview=grid"},"geometry":{"type":"Point","coordinates":[-86.72823702,32.27082092]}},{"type":"Feature","properties":{"Name":"Sequoia National Park","Park Code":"SEQU","Region":"PWR","State":"CA","Park Website":"https://www.nps.gov/SEQU/index.htm","See Observations in iNaturalist":"http://www.inaturalist.org/observations?place_id=95321&subview=grid"},"geometry":{"type":"Point","coordinates":[-118.5752033,36.50768379]}},{"type":"Feature","properties":{"Name":"Shenandoah National Park","Park Code":"SHEN","Region":"NER","State":"VA","Park Website":"https://www.nps.gov/SHEN/index.htm","See Observations in iNaturalist":"http://www.inaturalist.org/observations?place_id=9012&subview=grid"},"geometry":{"type":"Point","coordinates":[-78.67619963,38.28106541]}},{"type":"Feature","properties":{"Name":"Shiloh National Battlefield","Park Code":"SHIL","Region":"SER","State":"MS","Park Website":"https://www.nps.gov/SHIL/index.htm","See Observations in iNaturalist":"http://www.inaturalist.org/observations?place_id=95324&subview=grid"},"geometry":{"type":"Point","coordinates":[-88.34213102,35.13852204]}},{"type":"Feature","properties":{"Name":"Sitka National Historical Park","Park Code":"SITK","Region":"AKR","State":"AK","Park Website":"https://www.nps.gov/SITK/index.htm","See Observations in iNaturalist":"http://www.inaturalist.org/observations?place_id=95325&subview=grid"},"geometry":{"type":"Point","coordinates":[-135.3155316,57.0471392]}},{"type":"Feature","properties":{"Name":"Sleeping Bear Dunes National Lakeshore","Park Code":"SLBE","Region":"MWR","State":"MI","Park Website":"https://www.nps.gov/SLBE/index.htm","See Observations in iNaturalist":"http://www.inaturalist.org/observations?place_id=95326&subview=grid"},"geometry":{"type":"Point","coordinates":[-86.01521888,45.11160542]}},{"type":"Feature","properties":{"Name":"Springfield Armory National Historic Site","Park Code":"SPAR","Region":"NER","State":"MA","Park Website":"https://www.nps.gov/SPAR/index.htm","See Observations in iNaturalist":"http://www.inaturalist.org/observations?place_id=95322&subview=grid"},"geometry":{"type":"Point","coordinates":[-72.5811256,42.10830436]}},{"type":"Feature","properties":{"Name":"Steamtown National Historic Site","Park Code":"STEA","Region":"NER","State":"PA","Park Website":"https://www.nps.gov/STEA/index.htm","See Observations in iNaturalist":"http://www.inaturalist.org/observations?place_id=95323&subview=grid"},"geometry":{"type":"Point","coordinates":[-75.67037251,41.40757514]}},{"type":"Feature","properties":{"Name":"Statue Of Liberty National Monument","Park Code":"STLI","Region":"NER","State":"NY","Park Website":"https://www.nps.gov/STLI/index.htm","See Observations in iNaturalist":"http://www.inaturalist.org/observations?place_id=95327&subview=grid"},"geometry":{"type":"Point","coordinates":[-74.04173576,40.69826908]}},{"type":"Feature","properties":{"Name":"Stones River National Battlefield","Park Code":"STRI","Region":"SER","State":"TN","Park Website":"https://www.nps.gov/STRI/index.htm","See Observations in iNaturalist":"http://www.inaturalist.org/observations?place_id=95328&subview=grid"},"geometry":{"type":"Point","coordinates":[-86.43408004,35.87318749]}},{"type":"Feature","properties":{"Name":"Sunset Crater Volcano National Monument","Park Code":"SUCR","Region":"IMR","State":"AZ","Park Website":"https://www.nps.gov/SUCR/index.htm","See Observations in iNaturalist":"http://www.inaturalist.org/observations?place_id=95329&subview=grid"},"geometry":{"type":"Point","coordinates":[-111.510376,35.37114203]}},{"type":"Feature","properties":{"Name":"Tallgrass Prairie National Preserve","Park Code":"TAPR","Region":"MWR","State":"KS","Park Website":"https://www.nps.gov/TAPR/index.htm","See Observations in iNaturalist":"http://www.inaturalist.org/observations?place_id=95330&subview=grid"},"geometry":{"type":"Point","coordinates":[-96.57387273,38.45135719]}},{"type":"Feature","properties":{"Name":"Theodore Roosevelt Island National Memorial","Park Code":"THIS","Region":"NCR","State":"DC","Park Website":"https://www.nps.gov/THIS/index.htm","See Observations in iNaturalist":"http://www.inaturalist.org/observations?place_id=97442&subview=grid"},"geometry":{"type":"Point","coordinates":[-77.06241914,38.89584149]}},{"type":"Feature","properties":{"Name":"Thaddeus Kosciuszko National Memorial","Park Code":"THKO","Region":"NER","State":"PA","Park Website":"https://www.nps.gov/THKO/index.htm","See Observations in iNaturalist":"http://www.inaturalist.org/observations?place_id=95331&subview=grid"},"geometry":{"type":"Point","coordinates":[-75.14732045,39.94345312]}},{"type":"Feature","properties":{"Name":"Theodore Roosevelt Birthplace National Historic Site","Park Code":"THRB","Region":"NER","State":"NY","Park Website":"https://www.nps.gov/THRB/index.htm","See Observations in iNaturalist":"http://www.inaturalist.org/observations?place_id=95332&subview=grid"},"geometry":{"type":"Point","coordinates":[-73.98901268,40.73859311]}},{"type":"Feature","properties":{"Name":"Theodore Roosevelt Inaugural National Historic Site","Park Code":"THRI","Region":"NER","State":"NY","Park Website":"https://www.nps.gov/THRI/index.htm","See Observations in iNaturalist":"http://www.inaturalist.org/observations?place_id=95088&subview=grid"},"geometry":{"type":"Point","coordinates":[-78.87248411,42.90146781]}},{"type":"Feature","properties":{"Name":"Theodore Roosevelt National Park","Park Code":"THRO","Region":"MWR","State":"ND","Park Website":"https://www.nps.gov/THRO/index.htm","See Observations in iNaturalist":"http://www.inaturalist.org/observations?place_id=72793&subview=grid"},"geometry":{"type":"Point","coordinates":[-103.4592227,46.95359206]}},{"type":"Feature","properties":{"Name":"Thomas Stone National Historic Site","Park Code":"THST","Region":"NER","State":"MD","Park Website":"https://www.nps.gov/THST/index.htm","See Observations in iNaturalist":"http://www.inaturalist.org/observations?place_id=95128&subview=grid"},"geometry":{"type":"Point","coordinates":[-77.0378129,38.52934415]}},{"type":"Feature","properties":{"Name":"Timpanogos Cave National Monument","Park Code":"TICA","Region":"IMR","State":"UT","Park Website":"https://www.nps.gov/TICA/index.htm","See Observations in iNaturalist":"http://www.inaturalist.org/observations?place_id=95146&subview=grid"},"geometry":{"type":"Point","coordinates":[-111.7093944,40.44039704]}},{"type":"Feature","properties":{"Name":"Timucuan Ecological and Historic Preserve","Park Code":"TIMU","Region":"SER","State":"FL","Park Website":"https://www.nps.gov/TIMU/index.htm","See Observations in iNaturalist":"http://www.inaturalist.org/observations?place_id=95147&subview=grid"},"geometry":{"type":"Point","coordinates":[-81.47140832,30.43108984]}},{"type":"Feature","properties":{"Name":"Tonto National Monument","Park Code":"TONT","Region":"IMR","State":"AZ","Park Website":"https://www.nps.gov/TONT/index.htm","See Observations in iNaturalist":"http://www.inaturalist.org/observations?place_id=95162&subview=grid"},"geometry":{"type":"Point","coordinates":[-111.1135629,33.64842885]}},{"type":"Feature","properties":{"Name":"Tuskegee Airmen National Historic Site","Park Code":"TUAI","Region":"SER","State":"AL","Park Website":"https://www.nps.gov/TUAI/index.htm","See Observations in iNaturalist":"http://www.inaturalist.org/observations?place_id=95290&subview=grid"},"geometry":{"type":"Point","coordinates":[-85.67983319,32.45538667]}},{"type":"Feature","properties":{"Name":"Tuskegee Institute National Historic Site","Park Code":"TUIN","Region":"SER","State":"AL","Park Website":"https://www.nps.gov/TUIN/index.htm","See Observations in iNaturalist":"http://www.inaturalist.org/observations?place_id=95333&subview=grid"},"geometry":{"type":"Point","coordinates":[-85.70430589,32.42956952]}},{"type":"Feature","properties":{"Name":"Tumacacori National Historical Park","Park Code":"TUMA","Region":"IMR","State":"AZ","Park Website":"https://www.nps.gov/TUMA/index.htm","See Observations in iNaturalist":"http://www.inaturalist.org/observations?place_id=95317&subview=grid"},"geometry":{"type":"Point","coordinates":[-111.047764,31.57283049]}},{"type":"Feature","properties":{"Name":"Tupelo National Battlefield","Park Code":"TUPE","Region":"SER","State":"MS","Park Website":"https://www.nps.gov/TUPE/index.htm","See Observations in iNaturalist":"http://www.inaturalist.org/observations?place_id=95318&subview=grid"},"geometry":{"type":"Point","coordinates":[-88.73708623,34.25557705]}},{"type":"Feature","properties":{"Name":"Tule Springs Fossil Beds National Monument","Park Code":"TUSK","Region":"PWR","State":"NV","Park Website":"https://www.nps.gov/TUSK/index.htm","See Observations in iNaturalist":"http://www.inaturalist.org/observations?place_id=95334&subview=grid"},"geometry":{"type":"Point","coordinates":[-115.3523139,36.40602431]}},{"type":"Feature","properties":{"Name":"Tuzigoot National Monument","Park Code":"TUZI","Region":"IMR","State":"AZ","Park Website":"https://www.nps.gov/TUZI/index.htm","See Observations in iNaturalist":"http://www.inaturalist.org/observations?place_id=95181&subview=grid"},"geometry":{"type":"Point","coordinates":[-112.027907,34.77296334]}},{"type":"Feature","properties":{"Name":"Ulysses S. Grant National Historic Site","Park Code":"ULSG","Region":"MWR","State":"MO","Park Website":"https://www.nps.gov/ULSG/index.htm","See Observations in iNaturalist":"http://www.inaturalist.org/observations?place_id=95210&subview=grid"},"geometry":{"type":"Point","coordinates":[-90.35169255,38.55182373]}},{"type":"Feature","properties":{"Name":"Upper Delaware Scenic and Recreational River","Park Code":"UPDE","Region":"NER","State":"PA","Park Website":"https://www.nps.gov/UPDE/index.htm","See Observations in iNaturalist":"http://www.inaturalist.org/observations?place_id=95211&subview=grid"},"geometry":{"type":"Point","coordinates":[-75.00963121,41.5167673]}},{"type":"Feature","properties":{"Name":"Valley Forge National Historical Park","Park Code":"VAFO","Region":"NER","State":"PA","Park Website":"https://www.nps.gov/VAFO/index.htm","See Observations in iNaturalist":"http://www.inaturalist.org/observations?place_id=95335&subview=grid"},"geometry":{"type":"Point","coordinates":[-75.44574105,40.10061168]}},{"type":"Feature","properties":{"Name":"World War II Valor in the Pacific National Monument","Park Code":"VALR","Region":"PWR","State":"HI","Park Website":"https://www.nps.gov/VALR/index.htm","See Observations in iNaturalist":"http://www.inaturalist.org/observations?place_id=95340&subview=grid"},"geometry":{"type":"Point","coordinates":[-157.9385146,21.36700014]}},{"type":"Feature","properties":{"Name":"Vanderbilt Mansion National Historic Site","Park Code":"VAMA","Region":"NER","State":"NY","Park Website":"https://www.nps.gov/VAMA/index.htm","See Observations in iNaturalist":""},"geometry":{"type":"Point","coordinates":[-73.94194571,41.79660726]}},{"type":"Feature","properties":{"Name":"Vicksburg National Military Park","Park Code":"VICK","Region":"SER","State":"LA","Park Website":"https://www.nps.gov/VICK/index.htm","See Observations in iNaturalist":"http://www.inaturalist.org/observations?place_id=95337&subview=grid"},"geometry":{"type":"Point","coordinates":[-90.84309724,32.36451085]}},{"type":"Feature","properties":{"Name":"Virgin Islands Coral Reef National Monument","Park Code":"VICR","Region":"SER","State":"VI","Park Website":"https://www.nps.gov/VICR/index.htm","See Observations in iNaturalist":"http://www.inaturalist.org/observations?place_id=95338&subview=grid"},"geometry":{"type":"Point","coordinates":[-64.70793993,18.27350899]}},{"type":"Feature","properties":{"Name":"Virgin Islands National Park","Park Code":"VIIS","Region":"SER","State":"VI","Park Website":"https://www.nps.gov/VIIS/index.htm","See Observations in iNaturalist":"http://www.inaturalist.org/observations?place_id=95336&subview=grid"},"geometry":{"type":"Point","coordinates":[-64.74194397,18.34279345]}},{"type":"Feature","properties":{"Name":"Vietnam Veterans Memorial","Park Code":"VIVE","Region":"NCR","State":"DC","Park Website":"https://www.nps.gov/VIVE/index.htm","See Observations in iNaturalist":"http://www.inaturalist.org/observations?place_id=97453&subview=grid"},"geometry":{"type":"Point","coordinates":[-77.04765736,38.89096297]}},{"type":"Feature","properties":{"Name":"Voyageurs National Park","Park Code":"VOYA","Region":"MWR","State":"MN","Park Website":"https://www.nps.gov/VOYA/index.htm","See Observations in iNaturalist":"http://www.inaturalist.org/observations?place_id=69101&subview=grid"},"geometry":{"type":"Point","coordinates":[-92.83720626,48.48327144]}},{"type":"Feature","properties":{"Name":"Washita Battlefield National Historic Site","Park Code":"WABA","Region":"IMR","State":"OK","Park Website":"https://www.nps.gov/WABA/index.htm","See Observations in iNaturalist":"http://www.inaturalist.org/observations?place_id=95339&subview=grid"},"geometry":{"type":"Point","coordinates":[-99.70445142,35.62083955]}},{"type":"Feature","properties":{"Name":"Walnut Canyon National Monument","Park Code":"WACA","Region":"IMR","State":"AZ","Park Website":"https://www.nps.gov/WACA/index.htm","See Observations in iNaturalist":"http://www.inaturalist.org/observations?place_id=95341&subview=grid"},"geometry":{"type":"Point","coordinates":[-111.5024244,35.168228]}},{"type":"Feature","properties":{"Name":"Washington Monument","Park Code":"WAMO","Region":"NCR","State":"DC","Park Website":"https://www.nps.gov/WAMO/index.htm","See Observations in iNaturalist":"http://www.inaturalist.org/observations?place_id=97454&subview=grid"},"geometry":{"type":"Point","coordinates":[-77.03546584,38.88865172]}},{"type":"Feature","properties":{"Name":"War in the Pacific National Historical Park","Park Code":"WAPA","Region":"PWR","State":"GU","Park Website":"https://www.nps.gov/WAPA/index.htm","See Observations in iNaturalist":"http://www.inaturalist.org/observations?place_id=95342&subview=grid"},"geometry":{"type":"Point","coordinates":[144.6551139,13.39001068]}},{"type":"Feature","properties":{"Name":"Weir Farm National Historic Site","Park Code":"WEFA","Region":"NER","State":"CT","Park Website":"https://www.nps.gov/WEFA/index.htm","See Observations in iNaturalist":"http://www.inaturalist.org/observations?place_id=72896&subview=grid"},"geometry":{"type":"Point","coordinates":[-73.45648717,41.25675816]}},{"type":"Feature","properties":{"Name":"White House","Park Code":"WHHO","Region":"NCR","State":"DC","Park Website":"https://www.nps.gov/WHHO/index.htm","See Observations in iNaturalist":"http://www.inaturalist.org/observations?place_id=97458&subview=grid"},"geometry":{"type":"Point","coordinates":[-77.03655356,38.89703998]}},{"type":"Feature","properties":{"Name":"Whiskeytown-Shasta-Trinity National Recreation Area","Park Code":"WHIS","Region":"PWR","State":"CA","Park Website":"https://www.nps.gov/WHIS/index.htm","See Observations in iNaturalist":"http://www.inaturalist.org/observations?place_id=4518&subview=grid"},"geometry":{"type":"Point","coordinates":[-122.6022603,40.6135802]}},{"type":"Feature","properties":{"Name":"Whitman Mission National Historic Site","Park Code":"WHMI","Region":"PWR","State":"WA","Park Website":"https://www.nps.gov/WHMI/index.htm","See Observations in iNaturalist":"http://www.inaturalist.org/observations?place_id=95343&subview=grid"},"geometry":{"type":"Point","coordinates":[-118.4654876,46.04265092]}},{"type":"Feature","properties":{"Name":"White Sands National Monument","Park Code":"WHSA","Region":"IMR","State":"NM","Park Website":"https://www.nps.gov/WHSA/index.htm","See Observations in iNaturalist":"http://www.inaturalist.org/observations?place_id=62621&subview=grid"},"geometry":{"type":"Point","coordinates":[-106.3350855,32.77908003]}},{"type":"Feature","properties":{"Name":"Wind Cave National Park","Park Code":"WICA","Region":"MWR","State":"SD","Park Website":"https://www.nps.gov/WICA/index.htm","See Observations in iNaturalist":"http://www.inaturalist.org/observations?place_id=72794&subview=grid"},"geometry":{"type":"Point","coordinates":[-103.4390924,43.5802025]}},{"type":"Feature","properties":{"Name":"President William Jefferson Clinton Birthplace Home National Historic Site","Park Code":"WICL","Region":"MWR","State":"AR","Park Website":"https://www.nps.gov/WICL/index.htm","See Observations in iNaturalist":"http://www.inaturalist.org/observations?place_id=95345&subview=grid"},"geometry":{"type":"Point","coordinates":[-93.5964128,33.66761796]}},{"type":"Feature","properties":{"Name":"Wilson's Creek National Battlefield","Park Code":"WICR","Region":"MWR","State":"MO","Park Website":"https://www.nps.gov/WICR/index.htm","See Observations in iNaturalist":"http://www.inaturalist.org/observations?place_id=95346&subview=grid"},"geometry":{"type":"Point","coordinates":[-93.40985161,37.09998951]}},{"type":"Feature","properties":{"Name":"William Howard Taft National Historic Site","Park Code":"WIHO","Region":"MWR","State":"OH","Park Website":"https://www.nps.gov/WIHO/index.htm","See Observations in iNaturalist":"http://www.inaturalist.org/observations?place_id=95347&subview=grid"},"geometry":{"type":"Point","coordinates":[-84.50758951,39.11970352]}},{"type":"Feature","properties":{"Name":"Women's Rights National Historical Park","Park Code":"WORI","Region":"NER","State":"NY","Park Website":"https://www.nps.gov/WORI/index.htm","See Observations in iNaturalist":"http://www.inaturalist.org/observations?place_id=95291&subview=grid"},"geometry":{"type":"Point","coordinates":[-76.84451357,42.90262007]}},{"type":"Feature","properties":{"Name":"Wolf Trap Farm Park National Park","Park Code":"WOTR","Region":"NCR","State":"VA","Park Website":"https://www.nps.gov/WOTR/index.htm","See Observations in iNaturalist":"http://www.inaturalist.org/observations?place_id=97455&subview=grid"},"geometry":{"type":"Point","coordinates":[-77.26355408,38.9379319]}},{"type":"Feature","properties":{"Name":"Wright Brothers National Memorial","Park Code":"WRBR","Region":"SER","State":"NC","Park Website":"https://www.nps.gov/WRBR/index.htm","See Observations in iNaturalist":"http://www.inaturalist.org/observations?place_id=95344&subview=grid"},"geometry":{"type":"Point","coordinates":[-75.67022037,36.01621134]}},{"type":"Feature","properties":{"Name":"Wrangell-St. Elias National Park","Park Code":"WRST","Region":"AKR","State":"AK","Park Website":"https://www.nps.gov/WRST/index.htm","See Observations in iNaturalist":"http://www.inaturalist.org/observations?place_id=72658&subview=grid"},"geometry":{"type":"Point","coordinates":[-142.1319886,60.69186128]}},{"type":"Feature","properties":{"Name":"Wupatki National Monument","Park Code":"WUPA","Region":"IMR","State":"AZ","Park Website":"https://www.nps.gov/WUPA/index.htm","See Observations in iNaturalist":"http://www.inaturalist.org/observations?place_id=95294&subview=grid"},"geometry":{"type":"Point","coordinates":[-111.4036355,35.56118273]}},{"type":"Feature","properties":{"Name":"World War II Memorial","Park Code":"WWII","Region":"NCR","State":"DC","Park Website":"https://www.nps.gov/WWII/index.htm","See Observations in iNaturalist":"http://www.inaturalist.org/observations?place_id=97470&subview=grid"},"geometry":{"type":"Point","coordinates":[-77.0403759,38.88923917]}},{"type":"Feature","properties":{"Name":"Yellowstone National Park","Park Code":"YELL","Region":"IMR","State":"WY","Park Website":"https://www.nps.gov/YELL/index.htm","See Observations in iNaturalist":"http://www.inaturalist.org/observations?place_id=10211&subview=grid"},"geometry":{"type":"Point","coordinates":[-110.5471962,44.59644457]}},{"type":"Feature","properties":{"Name":"Yosemite National Park","Park Code":"YOSE","Region":"PWR","State":"CA","Park Website":"https://www.nps.gov/YOSE/index.htm","See Observations in iNaturalist":"http://www.inaturalist.org/observations?place_id=68542&subview=grid"},"geometry":{"type":"Point","coordinates":[-119.5569774,37.84832509]}},{"type":"Feature","properties":{"Name":"Yukon-Charley Rivers National Preserve","Park Code":"YUCH","Region":"AKR","State":"AK","Park Website":"https://www.nps.gov/YUCH/index.htm","See Observations in iNaturalist":"http://www.inaturalist.org/observations?place_id=95348&subview=grid"},"geometry":{"type":"Point","coordinates":[-142.7984276,65.08978639]}},{"type":"Feature","properties":{"Name":"Yucca House National Monument","Park Code":"YUHO","Region":"IMR","State":"CO","Park Website":"https://www.nps.gov/YUHO/index.htm","See Observations in iNaturalist":"http://www.inaturalist.org/observations?place_id=95349&subview=grid"},"geometry":{"type":"Point","coordinates":[-108.6859548,37.24895444]}},{"type":"Feature","properties":{"Name":"Zion National Park","Park Code":"ZION","Region":"IMR","State":"UT","Park Website":"https://www.nps.gov/ZION/index.htm","See Observations in iNaturalist":"http://www.inaturalist.org/observations?place_id=50634&subview=grid"},"geometry":{"type":"Point","coordinates":[-113.026442,37.29823699]}}]}